[
  {
    "loadType": "baseSite",
    "name": "USA Base Alpha",
    "code": "USBA",
    "baseDefenses": false,
    "public": false,
    "facilities": [
      { "code": "BL-1", "name": "USA Lab A-1" },
      { "code": "BH-1", "name": "USA Hangar A-1" },
      { "code": "BSL-1", "name": "USA Lab H-1" }
    ],
    "latDMS": "38 56 12.74 N",
    "longDMS": "104 12 24.1 W",
    "latDecimal": 38.9369,
    "longDecimal": -104.2067,
    "countryCode": "US",
    "teamCode": "USA",
    "coastal": false
  },
  {
    "loadType": "baseSite",
    "name": "USA Base Beta",
    "code": "USBB",
    "baseDefenses": false,
    "public": false,
    "facilities": [
      { "code": "BL-1", "name": "USA Lab B-1" },
      { "code": "BH-1", "name": "USA Hangar B-1" }
    ],
    "latDMS": "35 24 44.65 N",
    "longDMS": "86 3 49.07 W",
    "latDecimal": 35.4124,
    "longDecimal": -86.0636,
    "countryCode": "US",
    "teamCode": "USA",
    "coastal": false
  },
  {
    "loadType": "baseSite",
    "name": "TUK Base Alpha",
    "code": "GBBA",
    "baseDefenses": false,
    "public": false,
    "facilities": [
      { "code": "BL-1", "name": "TUK Lab  A-1" },
      { "code": "BH-1", "name": "Hangar  A-1" },
      { "code": "BSL-1", "name": "TUK Lab H-1" }
    ],
    "latDMS": "52 28 6.33 N",
    "longDMS": "1 55 26.17 W",
    "latDecimal": 52.4684,
    "longDecimal": -1.9239,
    "countryCode": "GB",
    "teamCode": "TUK",
    "coastal": false
  },
  {
    "loadType": "baseSite",
    "name": "RSA Base Alpha",
    "code": "ZABA",
    "baseDefenses": false,
    "public": false,
    "facilities": [
      { "code": "BL-1", "name": "RSA Lab  A-1" },
      { "code": "BH-1", "name": "RSA Hangar  A-1" },
      { "code": "BSL-1", "name": "RSA Lab H-1" }
    ],
    "latDMS": "28 42 27.42 S",
    "longDMS": "24 50 0.21 E",
    "latDecimal": -28.7076,
    "longDecimal": 24.8334,
    "countryCode": "ZA",
    "teamCode": "RSA",
    "coastal": false
  },
  {
    "loadType": "baseSite",
    "name": "RFD Base Alpha",
    "code": "RUBA",
    "baseDefenses": false,
    "public": false,
    "facilities": [
      { "code": "BL-1", "name": "RFD Lab  A-1" },
      { "code": "BH-1", "name": "RFD Hangar  A-1" },
      { "code": "BSL-1", "name": "RFD Lab H-1" }
    ],
    "latDMS": "55 26 46.6 N",
    "longDMS": "37 35 56.98 E",
    "latDecimal": 55.4463,
    "longDecimal": 37.5992,
    "countryCode": "RU",
    "teamCode": "RFD",
    "coastal": false
  },
  {
    "loadType": "baseSite",
    "name": "JPN Base Alpha",
    "code": "JPBA",
    "baseDefenses": false,
    "public": false,
    "facilities": [
      { "code": "BL-1", "name": "JPN Lab  A-1" },
      { "code": "BH-1", "name": "JPN Hangar  A-1" },
      { "code": "BSL-1", "name": "JPN Lab H-1" }
    ],
    "latDMS": "26 27 9.9 N",
    "longDMS": "127 49 44.6 E",
    "latDecimal": 26.4528,
    "longDecimal": 127.8291,
    "countryCode": "JP",
    "teamCode": "JPN",
    "coastal": false
  },
  {
    "loadType": "baseSite",
    "name": "IRN Base Alpha",
    "code": "IRBA",
    "baseDefenses": false,
    "public": false,
    "facilities": [
      { "code": "BL-1", "name": "IRN Lab  A-1" },
      { "code": "BH-1", "name": "IRN Hangar  A-1" },
      { "code": "BSL-1", "name": "IRN Lab H-1" }
    ],
    "latDMS": "32 41 10.0 N",
    "longDMS": "51 45 9.67 E",
    "latDecimal": 32.6861,
    "longDecimal": 51.7527,
    "countryCode": "IR",
    "teamCode": "IRN",
    "coastal": false
  },
  {
    "loadType": "baseSite",
    "name": "IND Base Alpha",
    "code": "INBA",
    "baseDefenses": false,
    "public": false,
    "facilities": [
      { "code": "BL-1", "name": "IND Lab  A-1" },
      { "code": "BH-1", "name": "IND Hangar  A-1" },
      { "code": "BSL-1", "name": "IND Lab H-1" }
    ],
    "latDMS": "23 10 21.26 N",
    "longDMS": "75 51 36.29 E",
    "latDecimal": 23.1726,
    "longDecimal": 75.8601,
    "countryCode": "IN",
    "teamCode": "IND",
    "coastal": false
  },
  {
    "loadType": "baseSite",
    "name": "TFR Base Alpha",
    "code": "FRBA",
    "baseDefenses": false,
    "public": false,
    "facilities": [
      { "code": "BL-1", "name": "TRF Lab  A-1" },
      { "code": "BH-1", "name": "TFR Hangar  A-1" },
      { "code": "BSL-1", "name": "TFR Lab H-1" }
    ],
    "latDMS": "43 37 11.76 N",
    "longDMS": "1 31 18.4 E",
    "latDecimal": 43.6199,
    "longDecimal": 1.5218,
    "countryCode": "FR",
    "teamCode": "TFR",
    "coastal": false
  },
  {
    "loadType": "baseSite",
    "name": "EPT Base Alpha",
    "code": "EGBA",
    "baseDefenses": false,
    "public": false,
    "facilities": [
      { "code": "BL-1", "name": "EPT Lab  A-1" },
      { "code": "BH-1", "name": "EPT Hangar  A-1" },
      { "code": "BSL-1", "name": "EPT Lab H-1" }
    ],
    "latDMS": "31 19 50.8 N",
    "longDMS": "27 18 58.69 E",
    "latDecimal": 31.3308,
    "longDecimal": 27.3163,
    "countryCode": "EG",
    "teamCode": "EPT",
    "coastal": true
  },
  {
    "loadType": "baseSite",
    "name": "PRC Base Alpha",
    "code": "CNBA",
    "baseDefenses": false,
    "public": false,
    "facilities": [
      { "code": "BL-1", "name": "PRC Lab  A-1" },
      { "code": "BH-1", "name": "PRC Hangar  A-1" },
      { "code": "BSL-1", "name": "PRC Lab H-1" }
    ],
    "latDMS": "30 51 36.1 N",
    "longDMS": "103 10 31.27 E",
    "latDecimal": 30.86,
    "longDecimal": 103.1754,
    "countryCode": "CN",
    "teamCode": "PRC",
    "coastal": false
  },
  {
    "loadType": "baseSite",
    "name": "BRZ Base Alpha",
    "code": "BRBA",
    "baseDefenses": false,
    "public": false,
    "facilities": [
      { "code": "BL-1", "name": "BRZ Lab  A-1" },
      { "code": "BH-1", "name": "BRZ Hangar  A-1" },
      { "code": "BSL-1", "name": "BRZ Lab H-1" }
    ],
    "latDMS": "3 3 56.75 S",
    "longDMS": "59 54 12.48 W",
    "latDecimal": -3.0658,
    "longDecimal": -59.9035,
    "countryCode": "BZ",
    "teamCode": "BRZ",
    "coastal": false
  },
  {
    "loadType": "baseSite",
    "name": "AUS Base Alpha",
    "code": "AUBA",
    "baseDefenses": false,
    "public": false,
    "facilities": [
      { "code": "BL-1", "name": "AUS Lab  A-1" },
      { "code": "BH-1", "name": "AUS Hangar  A-1" },
      { "code": "BSL-1", "name": "AUS Lab H-1" }
    ],
    "latDMS": "22 40 19.86 S",
    "longDMS": "133 31 25.3 E",
    "latDecimal": -22.6722,
    "longDecimal": 133.5237,
    "countryCode": "AU",
    "teamCode": "AUS",
    "coastal": false
  },
  {
    "loadType": "baseSite",
    "name": "FFG Base Alpha",
    "code": "FFGBA",
    "baseDefenses": false,
    "public": false,
    "facilities": [
      { "code": "BL-1", "name": "FED Lab  A-1" },
      { "code": "BH-1", "name": "FED Hangar  A-1" }
    ],
    "latDMS": "81 35 54.7 S",
    "longDMS": "064 21 13.7 E",
    "latDecimal": -81.5985,
    "longDecimal": 64.3538,
    "countryCode": "AQ",
    "teamCode": "FFG",
    "coastal": false
  },
  {
    "loadType": "baseSite",
    "name": "TCN Base Alpha",
    "code": "TCNBA",
    "baseDefenses": false,
    "public": false,
    "facilities": [
      { "code": "BL-1", "name": "TCN Lab  A-1" },
      { "code": "BH-1", "name": "TCN Hangar  A-1" }
    ],
    "latDMS": "27 40 27.8 N",
    "longDMS": "106 42 9.7 W",
    "latDecimal": 27.6744,
    "longDecimal": -106.2727,
    "countryCode": "MX",
    "teamCode": "TCN",
    "coastal": false
  }
]
