[
{"loadType": "citySite",
"name" : "Kinshasa",
"dateline" : "KINSHASA, Democratic Republic of the Congo",
"code" : "CD FIH",
"latDMS": "4 19 4.99 S",
"longDMS": "15 18 53.99 E",
"latDecimal": -4.3297,
"longDecimal": 15.315,
"countryCode" : "CD",
"teamCode" : "NPC"
}, 
{"loadType": "citySite",
"name" : "Kabul",
"dateline" : "KABUL, Afghanistan",
"code" : "",
"latDMS": "",
"longDMS": "",
"latDecimal": 0,
"longDecimal": 0, 
"countryCode" : "AF",
"teamCode" : "NPC"
},
{"loadType": "citySite",
"name" : "Tirana",
"dateline" : "TIRANA, Albania",
"code" : "",
"latDMS": "",
"longDMS": "",
"latDecimal": 0,
"longDecimal": 0, 
"countryCode" : "AL",
"teamCode" : "NPC"
},
{"loadType": "citySite",
"name" : "Algiers",
"dateline" : "ALGIERS, Algeria",
"code" : "",
"latDMS": "",
"longDMS": "",
"latDecimal": 0,
"longDecimal": 0, 
"countryCode" : "DZ",
"teamCode" : "NPC"
}, 
{"loadType": "citySite",
"name" : "Luanda",
"dateline" : "LUANDA, Angola",
"code" : "",
"latDMS": "",
"longDMS": "",
"latDecimal": 0,
"longDecimal": 0, 
"countryCode" : "AO",
"teamCode" : "NPC"
}, 
{"loadType": "citySite",
"name" : "South Pole",
"dateline" : "",
"code" : "",
"latDMS": "",
"longDMS": "",
"latDecimal": 0,
"longDecimal": 0, 
"countryCode" : "AQ",
"teamCode" : "NPC"
},
{"loadType": "citySite",
"name" : "",
"dateline" : "",
"code" : "",
"latDMS": "",
"longDMS": "",
"latDecimal": 0,
"longDecimal": 0, 
"countryCode" : "AG",
"teamCode" : "NPC"
},
{"loadType": "citySite",
"name" : "Cordoba",
"dateline" : "CORDOBA, Argentina",
"code" : "",
"latDMS": "",
"longDMS": "",
"latDecimal": 0,
"longDecimal": 0, 
"countryCode" : "AR",
"teamCode" : "NPC"
}, 
{"loadType": "citySite",
"name" : "Yerevan",
"dateline" : "YEREVAN, Armenia",
"code" : "",
"latDMS": "",
"longDMS": "",
"latDecimal": 0,
"longDecimal": 0, 
"countryCode" : "AM",
"teamCode" : "NPC"
}, 
{"loadType": "citySite",
"name" : "Perth",
"dateline" : "PERTH, Australia",
"code" : "",
"latDMS": "",
"longDMS": "",
"latDecimal": 0,
"longDecimal": 0, 
"countryCode" : "AU",
"teamCode" : "AUS"
},
{"loadType": "citySite",
"name" : "Brisbane",
"dateline" : "BRISBANE, Australia",
"code" : "",
"latDMS": "",
"longDMS": "",
"latDecimal": 0,
"longDecimal": 0, 
"countryCode" : "AU",
"teamCode" : "AUS"
},
{"loadType": "citySite",
"name" : "Sydney",
"dateline" : "SYDNEY",
"code" : "",
"latDMS": "",
"longDMS": "",
"latDecimal": 0,
"longDecimal": 0, 
"countryCode" : "AU",
"teamCode" : "AUS"
}, 
{"loadType": "citySite",
"name" : "Vienna",
"dateline" : "VIENNA",
"code" : "",
"latDMS": "",
"longDMS": "",
"latDecimal": 0,
"longDecimal": 0, 
"countryCode" : "AT",
"teamCode" : "NPC"
}, 
{"loadType": "citySite",
"name" : "Baku",
"dateline" : "BAKU, Azerbaijan",
"code" : "",
"latDMS": "",
"longDMS": "",
"latDecimal": 0,
"longDecimal": 0, 
"countryCode" : "AZ",
"teamCode" : "NPC"
},
{"loadType": "citySite",
"name" : "",
"dateline" : "",
"code" : "",
"latDMS": "",
"longDMS": "",
"latDecimal": 0,
"longDecimal": 0, 
"countryCode" : "BS",
"teamCode" : "NPC"
},
{"loadType": "citySite",
"name" : "",
"dateline" : "",
"code" : "",
"latDMS": "",
"longDMS": "",
"latDecimal": 0,
"longDecimal": 0, 
"countryCode" : "BH",
"teamCode" : "NPC"
}, 
{"loadType": "citySite",
"name" : "",
"dateline" : "",
"code" : "",
"latDMS": "",
"longDMS": "",
"latDecimal": 0,
"longDecimal": 0, 
"countryCode" : "BB",
"teamCode" : "NPC"
}, 
{"loadType": "citySite",
"name" : "Minsk",
"dateline" : "MINSK, Belarus",
"code" : "",
"latDMS": "",
"longDMS": "",
"latDecimal": 0,
"longDecimal": 0, 
"countryCode" : "BY",
"teamCode" : "NPC"
},
{"loadType": "citySite",
"name" : "Brussels",
"dateline" : "BRUSSELS",
"code" : "",
"latDMS": "",
"longDMS": "",
"latDecimal": 0,
"longDecimal": 0, 
"countryCode" : "BE",
"teamCode" : "NPC"
},
{"loadType": "citySite",
"name" : "Belize",
"dateline" : "BELIZE, Belize",
"code" : "",
"latDMS": "",
"longDMS": "",
"latDecimal": 0,
"longDecimal": 0, 
"countryCode" : "BZ",
"teamCode" : "NPC"
}, 
{"loadType": "citySite",
"name" : "",
"dateline" : "",
"code" : "",
"latDMS": "",
"longDMS": "",
"latDecimal": 0,
"longDecimal": 0, 
"countryCode" : "BM",
"teamCode" : "NPC"
}, 
{"loadType": "citySite",
"name" : "",
"dateline" : "",
"code" : "",
"latDMS": "",
"longDMS": "",
"latDecimal": 0,
"longDecimal": 0, 
"countryCode" : "BT",
"teamCode" : "NPC"
},
{"loadType": "citySite",
"name" : "Milan",
"dateline" : "MILAN, Bolivia",
"code" : "",
"latDMS": "",
"longDMS": "",
"latDecimal": 0,
"longDecimal": 0, 
"countryCode" : "BO",
"teamCode" : "NPC"
},
{"loadType": "citySite",
"name" : "Sarajevo",
"dateline" : "SARAJEVO, Bosnia and Herzegovina",
"code" : "",
"latDMS": "",
"longDMS": "",
"latDecimal": 0,
"longDecimal": 0, 
"countryCode" : "BA",
"teamCode" : "NPC"
}, 
{"loadType": "citySite",
"name" : "Fortaleza",
"dateline" : "FORTALEZA, Brazil",
"code" : "",
"latDMS": "",
"longDMS": "",
"latDecimal": 0,
"longDecimal": 0, 
"countryCode" : "BR",
"teamCode" : "BRZ"
}, 
{"loadType": "citySite",
"name" : "Recife",
"dateline" : "RECIFE, Brazil",
"code" : "",
"latDMS": "",
"longDMS": "",
"latDecimal": 0,
"longDecimal": 0, 
"countryCode" : "BR",
"teamCode" : "BRZ"
},
{"loadType": "citySite",
"name" : "Salvador",
"dateline" : "SALVADOR, Brazil",
"code" : "",
"latDMS": "",
"longDMS": "",
"latDecimal": 0,
"longDecimal": 0, 
"countryCode" : "BR",
"teamCode" : "BRZ"
},
{"loadType": "citySite",
"name" : "Rio de Janeiro",
"dateline" : "RIO DE JANEIRO",
"code" : "",
"latDMS": "",
"longDMS": "",
"latDecimal": 0,
"longDecimal": 0, 
"countryCode" : "BR",
"teamCode" : "BRZ"
}, 
{"loadType": "citySite",
"name" : "Sao Paulo",
"dateline" : "SAO PAULO",
"code" : "",
"latDMS": "",
"longDMS": "",
"latDecimal": 0,
"longDecimal": 0, 
"countryCode" : "BR",
"teamCode" : "BRZ"
}, 
{"loadType": "citySite",
"name" : "",
"dateline" : "",
"code" : "",
"latDMS": "",
"longDMS": "",
"latDecimal": 0,
"longDecimal": 0, 
"countryCode" : "BN",
"teamCode" : "NPC"
},
{"loadType": "citySite",
"name" : "Bucharest",
"dateline" : "BUCHAREST, Bulgaria",
"code" : "",
"latDMS": "",
"longDMS": "",
"latDecimal": 0,
"longDecimal": 0, 
"countryCode" : "BG",
"teamCode" : "NPC"
},
{"loadType": "citySite",
"name" : "Ouagadougou",
"dateline" : "OUAGADOUGOU, Burkina Faso",
"code" : "",
"latDMS": "",
"longDMS": "",
"latDecimal": 0,
"longDecimal": 0, 
"countryCode" : "BF",
"teamCode" : "NPC"
}, 
{"loadType": "citySite",
"name" : "Phnom Penh",
"dateline" : "PHNOM PENH, Cambodia",
"code" : "",
"latDMS": "",
"longDMS": "",
"latDecimal": 0,
"longDecimal": 0, 
"countryCode" : "KH",
"teamCode" : "NPC"
}, 
{"loadType": "citySite",
"name" : "",
"dateline" : "",
"code" : "",
"latDMS": "",
"longDMS": "",
"latDecimal": 0,
"longDecimal": 0, 
"countryCode" : "CM",
"teamCode" : "NPC"
},
{"loadType": "citySite",
"name" : "Vancouver",
"dateline" : "VANCOUVER, Canada",
"code" : "",
"latDMS": "",
"longDMS": "",
"latDecimal": 0,
"longDecimal": 0, 
"countryCode" : "CA",
"teamCode" : "NPC"
},
{"loadType": "citySite",
"name" : "Montreal",
"dateline" : "MONTREAL",
"code" : "",
"latDMS": "",
"longDMS": "",
"latDecimal": 0,
"longDecimal": 0, 
"countryCode" : "CA",
"teamCode" : "NPC"
}, 
{"loadType": "citySite",
"name" : "",
"dateline" : "",
"code" : "",
"latDMS": "",
"longDMS": "",
"latDecimal": 0,
"longDecimal": 0, 
"countryCode" : "CV",
"teamCode" : "NPC"
}, 
{"loadType": "citySite",
"name" : "Bangui",
"dateline" : "BANGUI, Central African Republic",
"code" : "",
"latDMS": "",
"longDMS": "",
"latDecimal": 0,
"longDecimal": 0, 
"countryCode" : "CF",
"teamCode" : "NPC"
},
{"loadType": "citySite",
"name" : "N'Djamena",
"dateline" : "N'DJAMENA, Chad",
"code" : "",
"latDMS": "",
"longDMS": "",
"latDecimal": 0,
"longDecimal": 0, 
"countryCode" : "TD",
"teamCode" : "NPC"
},
{"loadType": "citySite",
"name" : "Santiago",
"dateline" : "SANTIAGO, Chile",
"code" : "",
"latDMS": "",
"longDMS": "",
"latDecimal": 0,
"longDecimal": 0, 
"countryCode" : "CL",
"teamCode" : "NPC"
}, 
{"loadType": "citySite",
"name" : "Kashgar",
"dateline" : "KASHGAR, China",
"code" : "",
"latDMS": "",
"longDMS": "",
"latDecimal": 0,
"longDecimal": 0, 
"countryCode" : "CN",
"teamCode" : "PRC"
}, 
{"loadType": "citySite",
"name" : "Harbin",
"dateline" : "HARBIN, China",
"code" : "",
"latDMS": "",
"longDMS": "",
"latDecimal": 0,
"longDecimal": 0, 
"countryCode" : "CN",
"teamCode" : "PRC"
},
{"loadType": "citySite",
"name" : "Beijing",
"dateline" : "BEIJING",
"code" : "",
"latDMS": "",
"longDMS": "",
"latDecimal": 0,
"longDecimal": 0, 
"countryCode" : "CN",
"teamCode" : "PRC"
},
{"loadType": "citySite",
"name" : "Chongqing",
"dateline" : "CHONGQING, China",
"code" : "",
"latDMS": "",
"longDMS": "",
"latDecimal": 0,
"longDecimal": 0, 
"countryCode" : "CN",
"teamCode" : "PRC"
}, 
{"loadType": "citySite",
"name" : "Shanghai",
"dateline" : "SHANGHAI",
"code" : "",
"latDMS": "",
"longDMS": "",
"latDecimal": 0,
"longDecimal": 0, 
"countryCode" : "CN",
"teamCode" : "PRC"
}, 
{"loadType": "citySite",
"name" : "Taiwan",
"dateline" : "TAIPEI, China",
"code" : "",
"latDMS": "",
"longDMS": "",
"latDecimal": 0,
"longDecimal": 0, 
"countryCode" : "CN",
"teamCode" : "PRC"
},
{"loadType": "citySite",
"name" : "Medellian",
"dateline" : "MEDELLIAN, Colombia",
"code" : "",
"latDMS": "",
"longDMS": "",
"latDecimal": 0,
"longDecimal": 0, 
"countryCode" : "CO",
"teamCode" : "NPC"
},
{"loadType": "citySite",
"name" : "Bogota",
"dateline" : "BOGOTA, Colombia",
"code" : "",
"latDMS": "",
"longDMS": "",
"latDecimal": 0,
"longDecimal": 0, 
"countryCode" : "CO",
"teamCode" : "NPC"
}, 
{"loadType": "citySite",
"name" : "Abidjan",
"dateline" : "ABADJAN, Cote d’Ivoire",
"code" : "",
"latDMS": "",
"longDMS": "",
"latDecimal": 0,
"longDecimal": 0, 
"countryCode" : "CI",
"teamCode" : "NPC"
}, 
{"loadType": "citySite",
"name" : "Zagreb",
"dateline" : "",
"code" : "",
"latDMS": "",
"longDMS": "",
"latDecimal": 0,
"longDecimal": 0, 
"countryCode" : "HR",
"teamCode" : "NPC"
},
{"loadType": "citySite",
"name" : "Havana",
"dateline" : "HAVANA",
"code" : "",
"latDMS": "",
"longDMS": "",
"latDecimal": 0,
"longDecimal": 0, 
"countryCode" : "CU",
"teamCode" : "NPC"
},
{"loadType": "citySite",
"name" : "",
"dateline" : "",
"code" : "",
"latDMS": "",
"longDMS": "",
"latDecimal": 0,
"longDecimal": 0, 
"countryCode" : "CY",
"teamCode" : "NPC"
}, 
{"loadType": "citySite",
"name" : "Lubumbashi",
"dateline" : "LUBUMBASHI, Democratic Republic of the Congo",
"code" : "CD LUB",
"latDMS": "11 40 0.00 S",
"longDMS": "27 28 0.00 E",
"latDecimal": -11.6666,
"longDecimal": 27.4666,
"countryCode" : "CD",
"teamCode" : "NPC"
}, 
{"loadType": "citySite",
"name" : "Copenhagen",
"dateline" : "COPENHAGEN, Denmark",
"code" : "DK CPH",
"latDMS": "55 40 32.72 N",
"longDMS": "12 34 8.48 E",
"latDecimal": 55.6757,
"longDecimal": 12.5690,
"countryCode" : "DK",
"teamCode" : "NPC"
},
{"loadType": "citySite",
"name" : "Djibouti",
"dateline" : "DJIBOUTI",
"code" : "DJ JIB",
"latDMS": "11 33 44.12 N",
"longDMS": "43 8 34.39 E",
"latDecimal": 11.5622,
"longDecimal": 43.1428,
"countryCode" : "DJ",
"teamCode" : "NPC"
},
{"loadType": "citySite",
"name" : "",
"dateline" : "",
"code" : "DM ",
"latDMS": "",
"longDMS": "",
"latDecimal": 0,
"longDecimal": 0, 
"countryCode" : "DM",
"teamCode" : "NPC"
}, 
{"loadType": "citySite",
"name" : "Quito",
"dateline" : "QUITO, Ecuador",
"code" : "EC UIO",
"latDMS": "0 13 12.39 S",
"longDMS": "78 30 41.38 W",
"latDecimal": -0.2201,
"longDecimal": -78.5114,
"countryCode" : "EC",
"teamCode" : "NPC"
}, 
{"loadType": "citySite",
"name" : "Cairo",
"dateline" : "CAIRO",
"code" : "EG CAI",
"latDMS": "",
"longDMS": "",
"latDecimal": 0,
"longDecimal": 0, 
"countryCode" : "EG",
"teamCode" : "EGT"
},
{"loadType": "citySite",
"name" : "San Salvador",
"dateline" : "SAN SALVADOR, El Salvador",
"code" : "SV SAL",
"latDMS": "13 41 47.63 N",
"longDMS": "89 10 39.76 W",
"latDecimal": 13.6965,
"longDecimal": -89.1777,
"countryCode" : "SV",
"teamCode" : "NPC"
},
{"loadType": "citySite",
"name" : "Malabo",
"dateline" : "MALABO, Equatorial Guinea",
"code" : "GQ SSG",
"latDMS": "3 45 17.73 N",
"longDMS": "8 46 46.64 E",
"latDecimal": 3.7549,
"longDecimal": 8.7796,
"countryCode" : "GQ",
"teamCode" : "NPC"
}, 
{"loadType": "citySite",
"name" : "Tallinn",
"dateline" : "TALLINN, Estonia",
"code" : "EE TLL",
"latDMS": "59 26 2.00 N",
"longDMS": "24 43 41.00 E",
"latDecimal": 59.4338,
"longDecimal": 24.728,
"countryCode" : "EE",
"teamCode" : "NPC"
}, 
{"loadType": "citySite",
"name" : "Manzini",
"dateline" : "MANZINI, eSwatini",
"code" : "SZ MTS",
"latDMS": "26 28 48.83 S",
"longDMS": "31 21 32.31 E",
"latDecimal": -26.4802,
"longDecimal": 31.3589,
"countryCode" : "SZ",
"teamCode" : "NPC"
},
{"loadType": "citySite",
"name" : "Addis Ababa",
"dateline" : "ADDIS ABABA, Ethiopia",
"code" : "ET ADD",
"latDMS": "9 0 35.55 N",
"longDMS": "38 45 54.93 E",
"latDecimal": 9.0098,
"longDecimal": 38.7652,
"countryCode" : "ET",
"teamCode" : "NPC"
},
{"loadType": "citySite",
"name" : "Suva",
"dateline" : "SUVA, Fiji",
"code" : "FJ SUV",
"latDMS": "18 8 10.83 S",
"longDMS": "178 25 37.23 E",
"latDecimal": -18.1363,
"longDecimal": 178.427,
"countryCode" : "FJ",
"teamCode" : "NPC"
}, 
{"loadType": "citySite",
"name" : "Lyon",
"dateline" : "LYON, France",
"code" : "FR LYS",
"latDMS": "45 46 2.20 N",
"longDMS": "4 50 3.67 E",
"latDecimal": 45.7672,
"longDecimal": 4.8343,
"countryCode" : "FR",
"teamCode" : "TFR"
}, 
{"loadType": "citySite",
"name" : "Paris",
"dateline" : "PARIS",
"code" : "FR ",
"latDMS": "",
"longDMS": "",
"latDecimal": 0,
"longDecimal": 0, 
"countryCode" : "FR",
"teamCode" : "TFR"
},
{"loadType": "citySite",
"name" : "Cayenne",
"dateline" : "New York",
"code" : "CAY",
"latDMS": "",
"longDMS": "",
"latDecimal": 0,
"longDecimal": 0, 
"countryCode" : "GF",
"teamCode" : "NPC"
},
{"loadType": "citySite",
"name" : "Tbilsi",
"dateline" : "TBILSI, Georgia",
"code" : "GE TBS",
"latDMS": "41 41 36.09 N",
"longDMS": "44 48 5.76 E",
"latDecimal": 41.6933,
"longDecimal": 44.8016,
"countryCode" : "GE",
"teamCode" : "NPC"
}, 
{"loadType": "citySite",
"name" : "Ruhr",
"dateline" : "RUHR, Germany",
"code" : "DE RHR",
"latDMS": "51 24 26.40 N",
"longDMS": "6 53 37.55 E",
"latDecimal": 51.4073,
"longDecimal": 6.8937,
"countryCode" : "DE",
"teamCode" : "NPC"
}, 
{"loadType": "citySite",
"name" : "Accra",
"dateline" : "ACCRA, Ghana",
"code" : "GH ACC",
"latDMS": "5 32 59.99 N",
"longDMS": "0 13 0.00 W",
"latDecimal": 5.5500,
"longDecimal": -0.2166,
"countryCode" : "GH",
"teamCode" : "NPC"
},
{"loadType": "citySite",
"name" : "Libreville",
"dateline" : "Paris",
"code" : "LBV",
"latDMS": "",
"longDMS": "",
"latDecimal": 0,
"longDecimal": 0, 
"countryCode" : "GA",
"teamCode" : "NPC"
},
{"loadType": "citySite",
"name" : "Athens",
"dateline" : "ATHENS, Greece",
"code" : "GR ATH",
"latDMS": "37 58 59.99 N",
"longDMS": "23 43 59.99 E",
"latDecimal": 37.9833,
"longDecimal": 23.7333,
"countryCode" : "GR",
"teamCode" : "NPC"
}, 
{"loadType": "citySite",
"name" : "Nuuk",
"dateline" : "NUUK, Greenland",
"code" : "GL UAK",
"latDMS": "64 11 1.95 N",
"longDMS": "51 42 28.35 W",
"latDecimal": 64.1838,
"longDecimal": -51.7078,
"countryCode" : "GL",
"teamCode" : "NPC"
}, 
{"loadType": "citySite",
"name" : "",
"dateline" : "",
"code" : "GD ",
"latDMS": "",
"longDMS": "",
"latDecimal": 0,
"longDecimal": 0, 
"countryCode" : "GD",
"teamCode" : "NPC"
},
{"loadType": "citySite",
"name" : "Guatemala",
"dateline" : "GUATEMALA CITY",
"code" : "GT GUA",
"latDMS": "14 37 51.49 N",
"longDMS": "90 30 55.73 W",
"latDecimal": 14.6309,
"longDecimal": -90.5154,
"countryCode" : "GT",
"teamCode" : "NPC"
},
{"loadType": "citySite",
"name" : "Conakry",
"dateline" : "CONAKRY, Guinea",
"code" : "GN CKY",
"latDMS": "9 34 1.03 N",
"longDMS": "13 39 16.96 W",
"latDecimal": 9.5669,
"longDecimal": -13.6547,
"countryCode" : "GN",
"teamCode" : "NPC"
}, 
{"loadType": "citySite",
"name" : "Georgetown",
"dateline" : "GEORGETOWN, Guyana",
"code" : "GY GEO",
"latDMS": "6 48 33.98 N",
"longDMS": "58 9 52.81 W",
"latDecimal": 6.8094,
"longDecimal": -58.1646,
"countryCode" : "GY",
"teamCode" : "NPC"
}, 
{"loadType": "citySite",
"name" : "Port-au-Prince",
"dateline" : "PORT-AU-PRINCE, Haiti",
"code" : "HT PAP",
"latDMS": "18 32 46.04 N",
"longDMS": "72 20 50.68 W",
"latDecimal": 18.5461,
"longDecimal": -72.3474,
"countryCode" : "HT",
"teamCode" : "NPC"
},
{"loadType": "citySite",
"name" : "Vatican",
"dateline" : "VATICAN CITY",
"code" : "VA CIA",
"latDMS": "41 54 8.12 N",
"longDMS": "12 27 29.27 E",
"latDecimal": 41.9022,
"longDecimal": 12.4581,
"countryCode" : "VA",
"teamCode" : "NPC"
},
{"loadType": "citySite",
"name" : "Tegucigalpa",
"dateline" : "TEGUCIGALPA, Honduras",
"code" : "HN TGU",
"latDMS": "14 5 20.81 N",
"longDMS": "87 11 3.85 W",
"latDecimal": 14.0891,
"longDecimal": -87.1844,
"countryCode" : "HN",
"teamCode" : "NPC"
}, 
{"loadType": "citySite",
"name" : "Reykjavik",
"dateline" : "REYKJAVIK, Iceland",
"code" : "IS REK",
"latDMS": "64 8 49.94 N",
"longDMS": "21 56 32.63 W",
"latDecimal": 64.1472,
"longDecimal": -21.9424,
"countryCode" : "IS",
"teamCode" : "NPC"
}, 
{"loadType": "citySite",
"name" : "New Delhi",
"dateline" : "NEW DELHI",
"code" : "IN DEL",
"latDMS": "28 37 37.06 N",
"longDMS": "77 12 55.42 E",
"latDecimal": 28.6269,
"longDecimal": 77.2153,
"countryCode" : "IN",
"teamCode" : "IND"
},
{"loadType": "citySite",
"name" : "Mumbai",
"dateline" : "",
"code" : "IN BOM",
"latDMS": "",
"longDMS": "",
"latDecimal": 0,
"longDecimal": 0, 
"countryCode" : "IN",
"teamCode" : "IND"
},
{"loadType": "citySite",
"name" : "Hyderabad",
"dateline" : "HYDERABAD, India",
"code" : "IN HYD",
"latDMS": "17 24 48.23 N",
"longDMS": "78 27 36.16 E",
"latDecimal": 17.4133,
"longDecimal": 78.46  ,
"countryCode" : "IN",
"teamCode" : "IND"
}, 
{"loadType": "citySite",
"name" : "Kolkatta",
"dateline" : "KOLKATTA, India",
"code" : "IN CCU",
"latDMS": "22 33 40.92 N",
"longDMS": "88 22 1.47 E",
"latDecimal": 22.5613,
"longDecimal": 88.3670,
"countryCode" : "IN",
"teamCode" : "IND"
}, 
{"loadType": "citySite",
"name" : "Jakarta",
"dateline" : "JAKARTA, India",
"code" : "ID HLP",
"latDMS": "6 10 29.12 S",
"longDMS": "106 49 37.46 E",
"latDecimal": -6.1747,
"longDecimal": 106.8270,
"countryCode" : "ID",
"teamCode" : "NPC"
},
{"loadType": "citySite",
"name" : "Tehran",
"dateline" : "",
"code" : "IR THR",
"latDMS": "",
"longDMS": "",
"latDecimal": 0,
"longDecimal": 0, 
"countryCode" : "IR",
"teamCode" : "IRN"
},
{"loadType": "citySite",
"name" : "Baghdad",
"dateline" : "BAGHDAD",
"code" : "ID BGW",
"latDMS": "33 19 49.63 N",
"longDMS": "44 24 0.51 E",
"latDecimal": 33.3304,
"longDecimal": 44.4001,
"countryCode" : "ID",
"teamCode" : "IRN"
}, 
{"loadType": "citySite",
"name" : "Jerusalem",
"dateline" : "JERUSALEM",
"code" : "IL JRS",
"latDMS": "31 46 30.96 N",
"longDMS": "35 13 3.92 E",
"latDecimal": 31.7752,
"longDecimal": 35.2177,
"countryCode" : "IL",
"teamCode" : "NPC"
}, 
{"loadType": "citySite",
"name" : "Beirut",
"dateline" : "BEIRUT, Israel",
"code" : "IL TLV",
"latDMS": "32 2 24.16 N",
"longDMS": "34 54 43.46 E",
"latDecimal": 32.0400,
"longDecimal": 34.9120,
"countryCode" : "IL",
"teamCode" : "NPC"
},
{"loadType": "citySite",
"name" : "Milan",
"dateline" : "MILAN",
"code" : "IT BGY",
"latDMS": "45 28 1.82 N",
"longDMS": "9 11 22.79 E",
"latDecimal": 45.4671,
"longDecimal": 9.1896,
"countryCode" : "IT",
"teamCode" : "NPC"
},
{"loadType": "citySite",
"name" : "Rome",
"dateline" : "ROME",
"code" : "IT ROM",
"latDMS": "41 53 21.45 N",
"longDMS": "12 29 36.76 E",
"latDecimal": 41.8892,
"longDecimal": 12.4935,
"countryCode" : "IT",
"teamCode" : "NPC"
}, 
{"loadType": "citySite",
"name" : "Tokyo",
"dateline" : "TOKYO",
"code" : "JP TYO",
"latDMS": "",
"longDMS": "",
"latDecimal": 0,
"longDecimal": 0, 
"countryCode" : "JP",
"teamCode" : "JPN"
}, 
{"loadType": "citySite",
"name" : "Osaka",
"dateline" : "OSAKA, Japan",
"code" : "JP OSA",
"latDMS": "34 41 37.53 N",
"longDMS": "135 303.83 E",
"latDecimal": 34.6937,
"longDecimal": 135.501,
"countryCode" : "JP",
"teamCode" : "JPN"
},
{"loadType": "citySite",
"name" : "Amman",
"dateline" : "AMMAN, Jordan",
"code" : "JO ADJ",
"latDMS": "31 57 2.67 N",
"longDMS": "35 55 16.18 E",
"latDecimal": 31.9507,
"longDecimal": 35.9211,
"countryCode" : "JO",
"teamCode" : "NPC"
},
{"loadType": "citySite",
"name" : "Astana",
"dateline" : "ASTANA, Kazakhstan",
"code" : "KZ TSE",
"latDMS": "51 10 38.12 N",
"longDMS": "71 25 26.55 E",
"latDecimal": 51.1772,
"longDecimal": 71.4240,
"countryCode" : "KZ",
"teamCode" : "NPC"
}, 
{"loadType": "citySite",
"name" : "Nairobi",
"dateline" : "NAIROBI, Kenya",
"code" : "KE NBO",
"latDMS": "1 16 59.99 N",
"longDMS": "36 49 0.00 E",
"latDecimal": -1.2833,
"longDecimal": 36.8166,
"countryCode" : "KE",
"teamCode" : "NPC"
}, 
{"loadType": "",
"name" : "",
"dateline" : "",
"code" : "KI ",
"latDMS": "",
"longDMS": "",
"latDecimal": 0,
"longDecimal": 0, 
"countryCode" : "KI",
"teamCode" : "NPC"
},
{"loadType": "citySite",
"name" : "Kuwait City",
"dateline" : "KUWAIT CITY",
"code" : "KW KWI",
"latDMS": "29 22 38.59 N",
"longDMS": "47 58 58.03 E",
"latDecimal": 29.3773,
"longDecimal": 47.9827,
"countryCode" : "KW",
"teamCode" : "NPC"
},
{"loadType": "citySite",
"name" : "Bishkek",
"dateline" : "BISHKEK, Kyrgyzstan",
"code" : "KG FRU",
"latDMS": "42 52 20.46 N",
"longDMS": "74 35 56.34 E",
"latDecimal": 42.8723,
"longDecimal": 74.5989,
"countryCode" : "KG",
"teamCode" : "NPC"
}, 
{"loadType": "citySite",
"name" : "Riga",
"dateline" : "RIGA, Latvia",
"code" : "LV RIX",
"latDMS": "56 56 51.00 N",
"longDMS": "24 6 34.34 E",
"latDecimal": 56.9475,
"longDecimal": 24.1095,
"countryCode" : "LV",
"teamCode" : "NPC"
}, 
{"loadType": "citySite",
"name" : "Beirut",
"dateline" : "BEIRUT",
"code" : "LB BEY",
"latDMS": "33 53 35.58 N",
"longDMS": "35 28 49.24 E",
"latDecimal": 33.8932,
"longDecimal": 35.4803,
"countryCode" : "LB",
"teamCode" : "NPC"
},
{"loadType": "citySite",
"name" : "Maseru",
"dateline" : "MASERU, Lesotho",
"code" : "LS MSU",
"latDMS": "29 18 35.99 S",
"longDMS": "27 28 48.00 E",
"latDecimal": -29.3100,
"longDecimal": 27.4800,
"countryCode" : "LS",
"teamCode" : "NPC"
},
{"loadType": "citySite",
"name" : "Monrovia",
"dateline" : "MONROVIA, Liberia",
"code" : "LR MLW",
"latDMS": "6 18 38.00 N",
"longDMS": "10 48 16.99 W",
"latDecimal": 6.3105,
"longDecimal": -10.8047,
"countryCode" : "LR",
"teamCode" : "NPC"
}, 
{"loadType": "",
"name" : "",
"dateline" : "",
"code" : "LI ",
"latDMS": "",
"longDMS": "",
"latDecimal": 0,
"longDecimal": 0, 
"countryCode" : "LI",
"teamCode" : "NPC"
}, 
{"loadType": "",
"name" : "Vilnius",
"dateline" : "VILNIUS, Lithuania",
"code" : "LT VNO",
"latDMS": "54 41 2.14 N",
"longDMS": "25 16 34.54 E",
"latDecimal": 54.6839,
"longDecimal": 25.2762,
"countryCode" : "LT",
"teamCode" : "NPC"
},
{"loadType": "citySite",
"name" : "Luxembourg",
"dateline" : "LUXEMBOURG",
"code" : "LU LUX",
"latDMS": "49 46 39.30 N",
"longDMS": "6 5 41.30 E",
"latDecimal": 49.7775,
"longDecimal": 6.0948,
"countryCode" : "LU",
"teamCode" : "NPC"
},
{"loadType": "",
"name" : "",
"dateline" : "",
"code" : "MO ",
"latDMS": "",
"longDMS": "",
"latDecimal": 0,
"longDecimal": 0, 
"countryCode" : "MO",
"teamCode" : "NPC"
}, 
{"loadType": "citySite",
"name" : "Antananarivo",
"dateline" : "ANTANANARIVO, Madagascar",
"code" : "MG TNR",
"latDMS": "18 55 0.00 S",
"longDMS": "47 31 0.00 E",
"latDecimal": -18.9166,
"longDecimal": 47.5166,
"countryCode" : "MG",
"teamCode" : "NPC"
}, 
{"loadType": "citySite",
"name" : "Lilongwe",
"dateline" : "LILONGWE, Malawi",
"code" : "MW LLW",
"latDMS": "13 59 5.93 S",
"longDMS": "33 46 9.88 E",
"latDecimal": -13.9849,
"longDecimal": 33.7694,
"countryCode" : "MW",
"teamCode" : "NPC"
},
{"loadType": "citySite",
"name" : "Kuala Lumpur",
"dateline" : "KUALA LUMPUR, Malaysia",
"code" : "MY KUL",
"latDMS": "3 8 9.54 N",
"longDMS": "101 40 21.68 E",
"latDecimal": 3.1359,
"longDecimal": 101.6726,
"countryCode" : "MY",
"teamCode" : "NPC"
},
{"loadType": "citySite",
"name" : "Bamako",
"dateline" : "BAMAKO, Mali",
"code" : "ML BKO",
"latDMS": "12 37 50.93 N",
"longDMS": "7 59 55.5 W",
"latDecimal": 12.6308,
"longDecimal": -7.9987,
"countryCode" : "ML",
"teamCode" : "NPC"
}, 
{"loadType": "citySite",
"name" : "Nouakchott",
"dateline" : "NOUAKCHOTT, Mauritania",
"code" : "MR NKC",
"latDMS": "18 5 31.66 N",
"longDMS": "15 58 46.47 W",
"latDecimal": 18.0921,
"longDecimal": -15.9795,
"countryCode" : "MR",
"teamCode" : "NPC"
}, 
{"loadType": "",
"name" : "",
"dateline" : "",
"code" : "MR ",
"latDMS": "",
"longDMS": "",
"latDecimal": 0,
"longDecimal": 0, 
"countryCode" : "MR",
"teamCode" : "NPC"
},
{"loadType": "citySite",
"name" : "Mexico City",
"dateline" : "MEXICO CITY",
"code" : "MX MEX",
"latDMS": "19 25 55.08 N",
"longDMS": "99 8 0.30 W",
"latDecimal": 19.4319,
"longDecimal": -99.1334,
"countryCode" : "MX",
"teamCode" : "NPC"
},
{"loadType": "citySite",
"name" : "Monterrey",
"dateline" : "MONTERREY, Mexico",
"code" : "MX MTY",
"latDMS": "25 41 3.67 N",
"longDMS": "100 19 1.80 W",
"latDecimal": 25.6843,
"longDecimal": -100.3171,
"countryCode" : "MX",
"teamCode" : "NPC"
}, 
{"loadType": "citySite",
"name" : "Chisinau",
"dateline" : "CHISINAU, Moldova",
"code" : "MD KIV",
"latDMS": "47 1 0.18 N",
"longDMS": "28 50 59.07 E",
"latDecimal": 47.0167,
"longDecimal": 28.8497,
"countryCode" : "MD",
"teamCode" : "NPC"
}, 
{"loadType": "citySite",
"name" : "Monaco",
"dateline" : "MONACO",
"code" : "MC XMM",
"latDMS": "43 44 17.95 N",
"longDMS": "7 25 26.82 E",
"latDecimal": 43.7383,
"longDecimal": 7.4241,
"countryCode" : "MC",
"teamCode" : "NPC"
},
{"loadType": "citySite",
"name" : "Ulaanbaatar",
"dateline" : "ULAANBAATAR, Mongolia",
"code" : "MN ULN",
"latDMS": "47 55 7.68 N",
"longDMS": "106 55 3.41 E",
"latDecimal": 47.9188,
"longDecimal": 106.9176,
"countryCode" : "MN",
"teamCode" : "NPC"
},
{"loadType": "citySite",
"name" : "Podgorica",
"dateline" : "PODGORICA, Montenegro",
"code" : "ME TGD",
"latDMS": "42 26 27.99 N",
"longDMS": "19 15 48.99 E",
"latDecimal": 42.4411,
"longDecimal": 19.2636,
"countryCode" : "ME",
"teamCode" : "NPC"
}, 
{"loadType": "citySite",
"name" : "Maputo",
"dateline" : "MAPUTO, Mozambique",
"code" : "MZ MPM",
"latDMS": "25 57 55.00 S",
"longDMS": "32 35 21.00 E",
"latDecimal": -25.9652,
"longDecimal": 32.5891,
"countryCode" : "MZ",
"teamCode" : "NPC"
}, 
{"loadType": "citySite",
"name" : "Naypyitaw",
"dateline" : "NAYPYITAW, Myanmar",
"code" : "MM MDL",
"latDMS": "19 44 51.32 N",
"longDMS": "96 6 56.34 E",
"latDecimal": 19.7475,
"longDecimal": 96.1156,
"countryCode" : "MM",
"teamCode" : "NPC"
},
{"loadType": "citySite",
"name" : "Windhoek",
"dateline" : "WINDHOEK, Namibia",
"code" : "NA ERS",
"latDMS": "22 34 12 S",
"longDMS": "17 5 0.99 E",
"latDecimal": -22.5700,
"longDecimal": 17.0836,
"countryCode" : "NA",
"teamCode" : "NPC"
},
{"loadType": "citySite",
"name" : "Kathmandu",
"dateline" : "KATHMANDU, Nepal",
"code" : "NP KTM",
"latDMS": "27 42 28.24 N",
"longDMS": "85 18 51.59 E",
"latDecimal": 27.7078,
"longDecimal": 85.3143,
"countryCode" : "NP",
"teamCode" : "NPC"
}, 
{"loadType": "citySite",
"name" : "Noumea",
"dateline" : "NOUMEA, New Caledonia",
"code" : "NC NOU",
"latDMS": "22 16 0.00 S",
"longDMS": "166 26 59.99 E",
"latDecimal": -22.2666,
"longDecimal": 166.4500,
"countryCode" : "NC",
"teamCode" : "NPC"
}, 
{"loadType": "citySite",
"name" : "Wellington",
"dateline" : "WELLINGTON, New Zealand",
"code" : "NZ WLG",
"latDMS": "41 17 33.17 S",
"longDMS": "174 46 24.11 E",
"latDecimal": -41.2925,
"longDecimal": 174.7733,
"countryCode" : "NZ",
"teamCode" : "NPC"
},
{"loadType": "citySite",
"name" : "Managua",
"dateline" : "MANAGUA, Nicaragua",
"code" : "NI MGA",
"latDMS": "12 7 5.92 N",
"longDMS": "86 15 36.11 W",
"latDecimal": 12.1183,
"longDecimal": -86.2600,
"countryCode" : "NI",
"teamCode" : "NPC"
},
{"loadType": "citySite",
"name" : "Niamey",
"dateline" : "NIAMEY, Niger",
"code" : "NE NIM",
"latDMS": "13 31 0.00 N",
"longDMS": "2 7 0.00 E",
"latDecimal": 13.5166,
"longDecimal": 2.1166,
"countryCode" : "NE",
"teamCode" : "NPC"
}, 
{"loadType": "citySite",
"name" : "Kano",
"dateline" : "KANO, Nigeria",
"code" : "NG KAN",
"latDMS": "11 59 47.00 N",
"longDMS": "8 31 0.00 E",
"latDecimal": 11.9963,
"longDecimal": 8.5166,
"countryCode" : "NG",
"teamCode" : "NPC"
}, 
{"loadType": "citySite",
"name" : "Abuja",
"dateline" : "ABUJA, Nigeria",
"code" : "NG ABV",
"latDMS": "9 3 17.17 N",
"longDMS": "7 29 2.02 E",
"latDecimal": 9.0547,
"longDecimal": 7.4838,
"countryCode" : "NG",
"teamCode" : "NPC"
},
{"loadType": "citySite",
"name" : "Pyongyang",
"dateline" : "PYONGYANG, North Korea",
"code" : "KP FNJ",
"latDMS": "39 0 56.86 N",
"longDMS": "125 45 8.48 E",
"latDecimal": 39.0157,
"longDecimal": 125.7523,
"countryCode" : "KP",
"teamCode" : "NPC"
},
{"loadType": "citySite",
"name" : "Oslo",
"dateline" : "OSLO, Norway",
"code" : "NO OSL",
"latDMS": "59 54 41.60 N",
"longDMS": "10 43 59.91 E",
"latDecimal": 59.9115,
"longDecimal": 10.7333,
"countryCode" : "NO",
"teamCode" : "NPC"
}, 
{"loadType": "citySite",
"name" : "Karachi",
"dateline" : "KARACHI, Pakistan",
"code" : "PK KHI",
"latDMS": "24 52 0.00 N",
"longDMS": "67 2 59.99 E",
"latDecimal": 24.8666,
"longDecimal": 67.0500,
"countryCode" : "PK",
"teamCode" : "NPC"
}, 
{"loadType": "citySite",
"name" : "Panama City",
"dateline" : "PANAMA CITY",
"code" : "PA PTY",
"latDMS": "8 58 56.36 N",
"longDMS": "79 31 37.30 W",
"latDecimal": 8.9823,
"longDecimal": -79.5270,
"countryCode" : "PA",
"teamCode" : "NPC"
},
{"loadType": "citySite",
"name" : "Port Moresby",
"dateline" : "PORT MORESBY, Papua New Guinea",
"code" : "PG POM",
"latDMS": "9 27 32.37 S",
"longDMS": "147 11 33.81 E",
"latDecimal": -9.4589,
"longDecimal": 147.1927,
"countryCode" : "PG",
"teamCode" : "NPC"
},
{"loadType": "citySite",
"name" : "Asuncion",
"dateline" : "PARAGUAY, Paraguay",
"code" : "PY ASU",
"latDMS": "31 6 10.28 S",
"longDMS": "58 46 12.57 W",
"latDecimal": -21.1028,
"longDecimal": -58.7701,
"countryCode" : "PY",
"teamCode" : "NPC"
}, 
{"loadType": "citySite",
"name" : "Manila",
"dateline" : "MANILIA, Philippines",
"code" : "PH MNL",
"latDMS": "14 35 21.55 N",
"longDMS": "120 58 52.05 E",
"latDecimal": 14.5893,
"longDecimal": 120.9811,
"countryCode" : "PH",
"teamCode" : "NPC"
}, 
{"loadType": "citySite",
"name" : "Warsaw",
"dateline" : "WARSAW, Poland",
"code" : "PL WAW",
"latDMS": "52 15 0.00 N",
"longDMS": "21 0 0.00 E",
"latDecimal": 52.2500,
"longDecimal": 21.0000,
"countryCode" : "PL",
"teamCode" : "NPC"
},
{"loadType": "citySite",
"name" : "Lisbon",
"dateline" : "LISBON, Portugal",
"code" : "PT LIS",
"latDMS": "38 59 39.04 N",
"longDMS": "9 10 22.49 W",
"latDecimal": 38.9941,
"longDecimal": -9.1729,
"countryCode" : "PT",
"teamCode" : "NPC"
},
{"loadType": "",
"name" : "San Juan",
"dateline" : "",
"code" : "PR SJU",
"latDMS": "",
"longDMS": "",
"latDecimal": 0,
"longDecimal": 0, 
"countryCode" : "PR",
"teamCode" : "NPC"
}, 
{"loadType": "citySite",
"name" : "Doha",
"dateline" : "DOHA, Qatar",
"code" : "QA DOH",
"latDMS": "25 19 34.14 N",
"longDMS": "51 31 46.62 E",
"latDecimal": 25.3261,
"longDecimal": 51.5296,
"countryCode" : "QA",
"teamCode" : "NPC"
}, 
{"loadType": "citySite",
"name" : "Bucharest",
"dateline" : "BUCHAREST, Romania",
"code" : "RO BUH",
"latDMS": "44 25 36.24 N",
"longDMS": "26 6 14.57 E",
"latDecimal": 44.4267,
"longDecimal": 26.1040,
"countryCode" : "RO",
"teamCode" : "NPC"
},
{"loadType": "citySite",
"name" : "Volgogard",
"dateline" : "VOLGOGARD, Russia",
"code" : "RU VOL",
"latDMS": "48 42 41.03 N",
"longDMS": "44 30 50.41 E",
"latDecimal": 48.7113,
"longDecimal": 44.5140,
"countryCode" : "RU",
"teamCode" : "RFD"
},
{"loadType": "",
"name" : "Moscow",
"dateline" : "MOSC",
"code" : "RU ",
"latDMS": "",
"longDMS": "",
"latDecimal": 0,
"longDecimal": 0, 
"countryCode" : "RU",
"teamCode" : "RFD"
}, 
{"loadType": "",
"name" : "",
"dateline" : "",
"code" : "",
"latDMS": "",
"longDMS": "",
"latDecimal": 0,
"longDecimal": 0, 
"countryCode" : "",
"teamCode" : "NPC"
}, 
{"loadType": "",
"name" : "",
"dateline" : "",
"code" : "",
"latDMS": "",
"longDMS": "",
"latDecimal": 0,
"longDecimal": 0, 
"countryCode" : "",
"teamCode" : "NPC"
},
{"loadType": "",
"name" : "",
"dateline" : "",
"code" : "",
"latDMS": "",
"longDMS": "",
"latDecimal": 0,
"longDecimal": 0, 
"countryCode" : "",
"teamCode" : "NPC"
},
{"loadType": "",
"name" : "",
"dateline" : "",
"code" : "WS ",
"latDMS": "",
"longDMS": "",
"latDecimal": 0,
"longDecimal": 0, 
"countryCode" : "WS",
"teamCode" : "NPC"
}, 
{"loadType": "",
"name" : "",
"dateline" : "",
"code" : "ST ",
"latDMS": "",
"longDMS": "",
"latDecimal": 0,
"longDecimal": 0, 
"countryCode" : "ST",
"teamCode" : "NPC"
}, 
{"loadType": "citySite",
"name" : "Riyadh",
"dateline" : "RIYADH, Saudi Arabia",
"code" : "SA RUH",
"latDMS": "24 38 47.89 N",
"longDMS": "46 42 54.33 E",
"latDecimal": 24.6466,
"longDecimal": 46.7150,
"countryCode" : "SA",
"teamCode" : "NPC"
},
{"loadType": "citySite",
"name" : "Mecca",
"dateline" : "MECCA, Saudi Arabia",
"code" : "SA MEC",
"latDMS": "21 24 33.18 N",
"longDMS": "39 47 55.67 E ",
"latDecimal": 21.4092,
"longDecimal": 39.7988,
"countryCode" : "SA",
"teamCode" : "NPC"
},
{"loadType": "citySite",
"name" : "Dakar",
"dateline" : "DAKAR, Senegal",
"code" : "SN DKR",
"latDMS": "14 40 26.18 N",
"longDMS": "17 26 26.86 W",
"latDecimal": 14.6739,
"longDecimal": -17.4407,
"countryCode" : "SN",
"teamCode" : "NPC"
}, 
{"loadType": "",
"name" : "",
"dateline" : "",
"code" : "SC ",
"latDMS": "",
"longDMS": "",
"latDecimal": 0,
"longDecimal": 0, 
"countryCode" : "SC",
"teamCode" : "NPC"
}, 
{"loadType": "citySite",
"name" : "Freetown",
"dateline" : "FREETOWN, Sierra Leone",
"code" : "SL FNA",
"latDMS": "8 29 24.00 N",
"longDMS": "13 14 3.00 W",
"latDecimal": 8.4900,
"longDecimal": -13.2341,
"countryCode" : "SL",
"teamCode" : "NPC"
},
{"loadType": "citySite",
"name" : "Singapore",
"dateline" : "SINGAPORE",
"code" : "SG SIN",
"latDMS": "1 21 22.33 N",
"longDMS": "103 49 41.31 E",
"latDecimal": 1.3562,
"longDecimal": 103.8281,
"countryCode" : "SG",
"teamCode" : "NPC"
},
{"loadType": "citySite",
"name" : "Bratislava",
"dateline" : "BRATISLAVA, Slovakia",
"code" : "SK BTS",
"latDMS": "48 8 59.99 N",
"longDMS": "17 7 0.00 E",
"latDecimal": 48.1500,
"longDecimal": 17.1166,
"countryCode" : "SK",
"teamCode" : "NPC"
}, 
{"loadType": "",
"name" : "",
"dateline" : "",
"code" : "SB ",
"latDMS": "",
"longDMS": "",
"latDecimal": 0,
"longDecimal": 0, 
"countryCode" : "SB",
"teamCode" : "NPC"
}, 
{"loadType": "citySite",
"name" : "Mogadishu",
"dateline" : "MOGADISHU, Somalia",
"code" : "SO MGQ",
"latDMS": "2 2 12.82 N",
"longDMS": "45 20 34.07 E",
"latDecimal": 2.0368,
"longDecimal": 45.3427,
"countryCode" : "SO",
"teamCode" : "NPC"
},
{"loadType": "citySite",
"name" : "Johannesburg",
"dateline" : "JOHANNESBURG",
"code" : "ZA JNB",
"latDMS": "26 11 23.81 N",
"longDMS": "28 1 53.87 E",
"latDecimal": -26.1899,
"longDecimal": 28.0316,
"countryCode" : "ZA",
"teamCode" : "RSA"
},
{"loadType": "",
"name" : "Cape Town",
"dateline" : "",
"code" : "ZA CPT",
"latDMS": "",
"longDMS": "",
"latDecimal": 0,
"longDecimal": 0, 
"countryCode" : "ZA",
"teamCode" : "RSA"
}, 
{"loadType": "citySite",
"name" : "Juba",
"dateline" : "JUBA, South Sudan",
"code" : "SS JUB",
"latDMS": "4 50 59.44 N",
"longDMS": "31 37 0.00 E",
"latDecimal": 4.8500,
"longDecimal": 31.6166,
"countryCode" : "SS",
"teamCode" : "NPC"
}, 
{"loadType": "citySite",
"name" : "Madrid",
"dateline" : "MADRID",
"code" : "ES MAD",
"latDMS": "40 25 10.63 N",
"longDMS": "3 41 30.54 E",
"latDecimal": 40.4196,
"longDecimal": -3.6918,
"countryCode" : "ES",
"teamCode" : "NPC"
},
{"loadType": "citySite",
"name" : "Barcelona",
"dateline" : "BARCELONA, Spain",
"code" : "ES BCN",
"latDMS": "41 23 31.89 N",
"longDMS": "2 9 53.52 E",
"latDecimal": 41.3921,
"longDecimal": 2.1648,
"countryCode" : "ES",
"teamCode" : "NPC"
},
{"loadType": "citySite",
"name" : "Colombo",
"dateline" : "COLOMBO, Sri Lanka",
"code" : "LK CMB",
"latDMS": "6 54 54.66 N",
"longDMS": "79 51 47.72 E",
"latDecimal": 6.9151,
"longDecimal": 79.8632,
"countryCode" : "LK",
"teamCode" : "NPC"
}, 
{"loadType": "",
"name" : "",
"dateline" : "",
"code" : "PS ",
"latDMS": "",
"longDMS": "",
"latDecimal": 0,
"longDecimal": 0, 
"countryCode" : "PS",
"teamCode" : "NPC"
}, 
{"loadType": "citySite",
"name" : "Paramaribo",
"dateline" : "PARAMARIBO, Suriname",
"code" : "SR PBM",
"latDMS": "5 49 59.99 N",
"longDMS": "55 10 0.00 W",
"latDecimal": 5.8333,
"longDecimal": -55.1666,
"countryCode" : "SR",
"teamCode" : "NPC"
},
{"loadType": "",
"name" : "Longyearbyen",
"dateline" : "Paris",
"code" : "LYR",
"latDMS": "",
"longDMS": "",
"latDecimal": 0,
"longDecimal": 0, 
"countryCode" : "NO",
"teamCode" : "NPC"
},
{"loadType": "citySite",
"name" : "Stockholm",
"dateline" : "STOCKHOLM",
"code" : "SE STO",
"latDMS": "59 19 40.68 N",
"longDMS": "18 3 13.11 E",
"latDecimal": 59.3279,
"longDecimal": 18.0536,
"countryCode" : "SE",
"teamCode" : "NPC"
}, 
{"loadType": "citySite",
"name" : "Damascus",
"dateline" : "DAMASCUS, Syria",
"code" : "SY DAM",
"latDMS": "33 31 6.59 N",
"longDMS": "36 17 36.00 E",
"latDecimal": 33.5184,
"longDecimal": 36.2933,
"countryCode" : "SY",
"teamCode" : "NPC"
}, 
{"loadType": "citySite",
"name" : "Dushanbe",
"dateline" : "DUSHANBE, Tajikistan",
"code" : "TJ DYU",
"latDMS": "38 33 36.00 N",
"longDMS": "68 46 25.99 E",
"latDecimal": 38.5600,
"longDecimal": 68.7738,
"countryCode" : "TJ",
"teamCode" : "NPC"
},
{"loadType": "citySite",
"name" : "Dodoma",
"dateline" : "DODOMA, Tanzania",
"code" : "TZ DOD",
"latDMS": "6 10 51.85 S",
"longDMS": "35 44 48.23 E",
"latDecimal": -6.1810,
"longDecimal": 35.7467,
"countryCode" : "TZ",
"teamCode" : "NPC"
},
{"loadType": "citySite",
"name" : "Dar es Salaam",
"dateline" : "DAR ES SALAAM, Tanzania",
"code" : "TZ DAR",
"latDMS": "6 47 59.99 S",
"longDMS": "39 16 59.99 E",
"latDecimal": -6.8000,
"longDecimal": 39.2833,
"countryCode" : "TZ",
"teamCode" : "NPC"
}, 
{"loadType": "",
"name" : "",
"dateline" : "",
"code" : "TL ",
"latDMS": "",
"longDMS": "",
"latDecimal": 0,
"longDecimal": 0, 
"countryCode" : "TL",
"teamCode" : "NPC"
}, 
{"loadType": "",
"name" : "Lome",
"dateline" : "Paris",
"code" : "TG LFW",
"latDMS": "",
"longDMS": "",
"latDecimal": 0,
"longDecimal": 0, 
"countryCode" : "TG",
"teamCode" : "NPC"
},
{"loadType": "",
"name" : "",
"dateline" : "",
"code" : "TT ",
"latDMS": "",
"longDMS": "",
"latDecimal": 0,
"longDecimal": 0, 
"countryCode" : "TT",
"teamCode" : "NPC"
},
{"loadType": "citySite",
"name" : "Tunis",
"dateline" : "TUNIS, Tunisia",
"code" : "TN TUN",
"latDMS": "36 47 47.89 N",
"longDMS": "10 9 51.11 E",
"latDecimal": 36.7966,
"longDecimal": 10.1641,
"countryCode" : "TN",
"teamCode" : "NPC"
}, 
{"loadType": "citySite",
"name" : "Ankara",
"dateline" : "ANKARA, Turkmenistan",
"code" : "TR ANK",
"latDMS": "39 56 20.05 N",
"longDMS": "32 5026.20 E",
"latDecimal": 39.9389,
"longDecimal": 32.8406,
"countryCode" : "TR",
"teamCode" : "NPC"
}, 
{"loadType": "citySite",
"name" : "Ashgabat",
"dateline" : "ASHGABAT, Turkmenistan",
"code" : "TM ASB",
"latDMS": "37 56 50.74 N",
"longDMS": "58 23 7.82 E",
"latDecimal": 37.9474,
"longDecimal": 58.3855,
"countryCode" : "TM",
"teamCode" : "NPC"
},
{"loadType": "",
"name" : "",
"dateline" : "",
"code" : "TV ",
"latDMS": "",
"longDMS": "",
"latDecimal": 0,
"longDecimal": 0, 
"countryCode" : "TV",
"teamCode" : "NPC"
},
{"loadType": "citySite",
"name" : "Kampala",
"dateline" : "KAMPALA, Uganda",
"code" : "UG EBB",
"latDMS": "0 18 56.00 N",
"longDMS": "32 33 56.00 E",
"latDecimal": 0.3155,
"longDecimal": 32.5655,
"countryCode" : "UG",
"teamCode" : "NPC"
}, 
{"loadType": "",
"name" : "London",
"dateline" : "LONDON",
"code" : "GB LON",
"latDMS": "",
"longDMS": "",
"latDecimal": 0,
"longDecimal": 0, 
"countryCode" : "GB",
"teamCode" : "TUK"
}, 
{"loadType": "citySite",
"name" : "Kiev",
"dateline" : "KIEV, Ukraine",
"code" : "UA KBP",
"latDMS": "50 27 0.35 N",
"longDMS": "30 31 24.23 E",
"latDecimal": 50.4501,
"longDecimal": 30.5234,
"countryCode" : "UA",
"teamCode" : "NPC"
},
{"loadType": "citySite",
"name" : "Abu Dhabi",
"dateline" : "ABU DHABI, United Arab Emirates",
"code" : "AE AUH",
"latDMS": "24 29 18.47 N",
"longDMS": "54 22 46.64 E",
"latDecimal": 24.4884,
"longDecimal": 54.3796,
"countryCode" : "AE",
"teamCode" : "NPC"
},
{"loadType": "citySite",
"name" : "Montevideo",
"dateline" : "MONTEVIDEO, Uruguay",
"code" : "UY MVD",
"latDMS": "34 54 23.25 S",
"longDMS": "56 11 53.98 W",
"latDecimal": -34.9064,
"longDecimal": -56.1983,
"countryCode" : "UY",
"teamCode" : "NPC"
}, 
{"loadType": "citySite",
"name" : "Chicago",
"dateline" : "CHICAGO",
"code" : "US CHI",
"latDMS": "41 56 1.38 N",
"longDMS": "87 37 56.57 W",
"latDecimal": 41.8837,
"longDecimal": -87.6323,
"countryCode" : "US",
"teamCode" : "USA"
}, 
{"loadType": "citySite",
"name" : "Washington",
"dateline" : "WASHINGTON",
"code" : "US WAS",
"latDMS": "38 53 43.91 N",
"longDMS": "77 1 55.04 W",
"latDecimal": 38.8955,
"longDecimal": -77.0319,
"countryCode" : "US",
"teamCode" : "USA"
},
{"loadType": "citySite",
"name" : "New York",
"dateline" : "NEW YORK",
"code" : "US NYC",
"latDMS": "40 42 46.84 N",
"longDMS": "74 0 25.66 W",
"latDecimal": 40.7130,
"longDecimal": -74.0071,
"countryCode" : "US",
"teamCode" : "USA"
},
{"loadType": "citySite",
"name" : "Los Angeles",
"dateline" : "LOS ANGELES",
"code" : "US LAX",
"latDMS": "34 3 12.04 N",
"longDMS": "118 14 32.45 W",
"latDecimal": 34.0533,
"longDecimal": -118.2423,
"countryCode" : "US",
"teamCode" : "USA"
}, 
{"loadType": "citySite",
"name" : "New Orleans",
"dateline" : "NEW ORLEANS",
"code" : "US MSY",
"latDMS": "29 57 9.12 N",
"longDMS": "90 4 36.07 W",
"latDecimal": 29.9525,
"longDecimal": -90.0766,
"countryCode" : "US",
"teamCode" : "USA"
}, 
{"loadType": "citySite",
"name" : "Nashville",
"dateline" : "NASHVILLE, Tenn.",
"code" : "US BNA",
"latDMS": "36 10 9.70 N",
"longDMS": "86 47 4.97 W",
"latDecimal": 36.1693,
"longDecimal": -86.7847,
"countryCode" : "US",
"teamCode" : "USA"
},
{"loadType": "citySite",
"name" : "Denver",
"dateline" : "DENVER",
"code" : "US DEN",
"latDMS": "39 44 21.16 N",
"longDMS": "104 59 25.09 W",
"latDecimal": 39.7392,
"longDecimal": -104.9903,
"countryCode" : "US",
"teamCode" : "USA"
},
{"loadType": "citySite",
"name" : "Miami",
"dateline" : "MIAMI",
"code" : "US MIA",
"latDMS": "25 43 40.63 N",
"longDMS": "80 14 2.57 W",
"latDecimal": 25.7279,
"longDecimal": -80.234,
"countryCode" : "US",
"teamCode" : "USA"
}, 
{"loadType": "citySite",
"name" : "Tashkent",
"dateline" : "TASHKENT, Uzbekistan",
"code" : "UZ TAS",
"latDMS": "41 18 38.08 N",
"longDMS": "69 16 54.42 E",
"latDecimal": 41.3105,
"longDecimal": 69.2817,
"countryCode" : "UZ",
"teamCode" : "NPC"
}, 
{"loadType": "citySite",
"name" : "Caracas",
"dateline" : "CARACAS, Venezuela",
"code" : "VE CCS",
"latDMS": "10 30 20.41 N",
"longDMS": "66 54 54.49 W",
"latDecimal": 10.5056,
"longDecimal": -66.9151,
"countryCode" : "VE",
"teamCode" : "NPC"
},
{"loadType": "citySite",
"name" : "Hanoi",
"dateline" : "HANOI, Vietnam",
"code" : "VN HAN",
"latDMS": "21 1 42.17 N",
"longDMS": "105 51 13.44 E",
"latDecimal": 21.0283,
"longDecimal": 105.8537,
"countryCode" : "VN",
"teamCode" : "NPC"
},
{"loadType": "citySite",
"name" : "Ho Chi Minh City",
"dateline" : "HO CHI MINH CITY, Vietnam",
"code" : "VN SGN",
"latDMS": "10 46 35.65 N",
"longDMS": "106 42 4.35 E",
"latDecimal": 10.7765,
"longDecimal": 106.7012,
"countryCode" : "VN",
"teamCode" : "NPC"
}, 
{"loadType": "citySite",
"name" : "Sana’a",
"dateline" : "SANA'A, Yemen",
"code" : "YE SAH",
"latDMS": "15 21 11.91 N",
"longDMS": "44 12 22.43 E",
"latDecimal": 15.3533,
"longDecimal": 44.2062,
"countryCode" : "YE",
"teamCode" : "NPC"
}, 
{"loadType": "citySite",
"name" : "Lusaka",
"dateline" : "LUSAKA, Zambia",
"code" : "ZM LUN",
"latDMS": "15 25 0.00 N",
"longDMS": "28 16 59.99 E",
"latDecimal": -15.4166,
"longDecimal": 28.2833,
"countryCode" : "ZM",
"teamCode" : "NPC"
},
{"loadType": "citySite",
"name" : "Maputo",
"dateline" : "MAPUTO, Zimbabwe",
"code" : "ZW MPM",
"latDMS": "18 11 8.12 S",
"longDMS": "30 36 6.68 E",
"latDecimal": -18.1855,
"longDecimal": 30.6018,
"countryCode" : "ZW",
"teamCode" : "NPC"
},
    {"loadType": "citySite",
    "name" : "San Francisco",
    "dateline" : "SAN FRANCISCO, United States",
    "code" : "US SFO",
    "latDMS": "37 46 26.3 N",
    "longDMS": "122 25 52.7 W",
    "latDecimal": 37.615223,
    "longDecimal": -122.389977,
    "countryCode" : "US",
    "teamCode" : "USA"
    },
    {"loadType": "citySite",
    "name" : "Moscow",
    "dateline": "MOSCOW",
    "code" : "RU BKA",
    "latDMS": "55 37 01.0 N",
    "longDMS": "038 03 36.0 E",
    "latDecimal": 55.6172,
    "longDecimal": 38.06,
    "countryCode" : "RU",
    "teamCode" : "RFD"
    },
    {"loadType": "citySite",
    "name" : "Beijing",
    "dateline" : "BEIJING",
    "code" : "CN BJS",
    "latDMS": "39 55 00.0 N",
    "longDMS": "116 22 60.0 E",
    "latDecimal": 39.91667,
    "longDecimal": 116.38331,
    "countryCode" : "CN",
    "teamCode" : "PRC"
    },
    {"loadType": "citySite",
    "name" : "Urumqi",
    "dateline" : "URUMQI, China",
    "code" : "CN URC",
    "latDMS": "43 47 55.87 N",
    "longDMS": "87 35 18.60 E",
    "latDecimal": 43.7988,
    "longDecimal": 87.5885,
    "countryCode" : "CN",
    "teamCode" : "PRC"
    },
    {"loadType": "citySite",
    "name" : "Kashgar",
    "dateline" : "KASHGAR, China",
    "code" : "CN KAS",
    "latDMS": "39 27 36.63 N",
    "longDMS": "75 58 54.30 E",
    "latDecimal": 39.4601,
    "longDecimal": 75.9817,
    "countryCode" : "CN",
    "teamCode" : "PRC"
    },
    {"loadType": "citySite",
    "name" : "Harbin",
    "dateline" : "HARBIN, China",
    "code" : "CN HRB",
    "latDMS": "45 45 0.00 N",
    "longDMS": "126 39 0.00 E",
    "latDecimal": 45.7500,
    "longDecimal": 126.6500,
    "countryCode" : "CN",
    "teamCode" : "PRC"
    },
    {"loadType": "citySite",
    "name" : "Chongqing",
    "dateline" : "CHONGQING, China",
    "code" : "CN CQI",
    "latDMS": "29 32 53.76 N",
    "longDMS": "106 31 44.56 E",
    "latDecimal": 29.5482,
    "longDecimal": 106.5290,
    "countryCode" : "CN",
    "teamCode" : "PRC"
    },
    {"loadType": "citySite",
    "name" : "Shanghai",
    "dateline" : "SHANGHAI",
    "code" : "CN SHA",
    "latDMS": "31 13 53.65 N",
    "longDMS": "121 28 10.75 E",
    "latDecimal": 31.2315,
    "longDecimal": 121.4696,
    "countryCode" : "CN",
    "teamCode" : "PRC"
    },
    {"loadType": "citySite",
    "name" : "Hong Kong",
    "dateline" : "HONG KONG",
    "code" : "CN CKG",
    "latDMS": "22 16 55.15 N",
    "longDMS": "114 9 28.06 E",
    "latDecimal": 22.2819,
    "longDecimal": 114.1577,
    "countryCode" : "CN",
    "teamCode" : "PRC"
    },
    {"loadType": "citySite",
    "name" : "Taipei",
    "dateline" : "TAIPEI, China",
    "code" : "CN TPE",
    "latDMS": "46 23 7.91 N",
    "longDMS": "123 24 43.56 E",
    "latDecimal": 46.3855,
    "longDecimal": 123.4121,
    "countryCode" : "CN",
    "teamCode" : "PRC"
    },
    {"loadType": "citySite",
    "name" : "Paris",
    "dateline" : "PARIS",
    "code" : "FR ATY",
    "latDMS": "48 51 53.0 N",
    "longDMS": "002 20 56.5 E",
    "latDecimal": 48.8566,
    "longDecimal": 2.3522,
    "countryCode" : "FR",
    "teamCode" : "TFR"
    },
    {"loadType": "citySite",
    "name" : "London",
    "dateline" : "LONDON",
    "code" : "GB LHR",
    "latDMS": "51 28 12.1 N",
    "longDMS": "000 27 15.5 E",
    "latDecimal": 51.47,
    "longDecimal": 0.4543,
    "countryCode" : "GB",
    "teamCode" : "TUK"
    },
    {"loadType": "citySite",
     "name" : "Amundsen-Scott South Pole",
     "dateline" : "SOUTH POLE",
     "code" : "AQ AMS",
     "latDMS": "90 00 00.0 S",
     "longDMS": "139 15 60.0 W",
     "latDecimal": -90.0,
     "longDecimal": -139.2667,
     "countryCode" : "AQ",
     "teamCode" : "USA"
    },
    {"loadType": "citySite",
    "name" : "Cape Town",
    "dateline" : "CAPE TOWN, South Africa",
    "code" : "ZA CPT",
    "latDMS": "33 55 07.89 N",
    "longDMS": "018 25 23.88 E",
    "latDecimal": 33.9249,
    "longDecimal": 18.4241,
    "countryCode" : "ZA",
    "teamCode" : "RSA"
    },
    {"loadType": "citySite",
    "name" : "Tokyo",
    "dateline" : "TOKYO",
    "code" : "JP NRT",
    "latDMS": "35 46 59.99 N",
    "longDMS": "140 19 0.01 E",
    "latDecimal": 35.7833,
    "longDecimal": 140.3167,
    "countryCode" : "JP",
    "teamCode" : "JPN"
    },
    {"loadType": "citySite",
    "name" : "Tehran",
    "dateline" : "TEHRAN, Iran",
    "code" : "IR IKA",
    "latDMS": "35 24 58.00 N",
    "longDMS": "051 09 08.0 E",
    "latDecimal": 35.4095,
    "longDecimal": 51.1552,
    "countryCode" : "IR",
    "teamCode" : "IRN"
    },
    {"loadType": "citySite",
    "name" : "Mumbai",
    "dateline" : "MUMBAI, India",
    "code" : "IN BOM",
    "latDMS": "19 04 33.92 N",
    "longDMS": "072 52 38.73 E",
    "latDecimal": 19.0760,
    "longDecimal": 72.8777,
    "countryCode" : "IN",
    "teamCode" : "IND"
    },
    {"loadType": "citySite",
    "name" : "Cairo",
    "dateline" : "CAIRO, Egypt",
    "code" : "EG CAI",
    "latDMS": "30 07 19.00 N",
    "longDMS": "031 24 20.00 E",
    "latDecimal": 30.0444,
    "longDecimal": 31.2357,
    "countryCode" : "EG",
    "teamCode" : "EPT"
    },
    {"loadType": "citySite",
    "name" : "Rio de Janeiro",
    "dateline" : "RIO DE JANEIRO",
    "code" : "BR GIG",
    "latDMS": "22 48 36.00 S",
    "longDMS": "043 15 02.00 W",
    "latDecimal": -22.8053,
    "longDecimal": -43.2566,
    "countryCode" : "BR",
    "teamCode" : "BRZ"
    },
    {"loadType": "citySite",
    "name" : "Sydney",
    "dateline" : "SYDNEY",
    "code" : "AU SYD",
    "latDMS": "33 56 50.45 S",
    "longDMS": "151 10 45.94 E",
    "latDecimal": -33.9473,
    "longDecimal": 151.1794,
    "countryCode" : "AU",
    "teamCode" : "AUS"
    },
    {"loadType": "citySite",
    "name" : "Perth",
    "dateline" : "PERTH, Australia",
    "code" : "AU PER",
    "latDMS": "31 45 45.84 S",
    "longDMS": "115 55 25.01 E",
    "latDecimal": -31.7627,
    "longDecimal": 115.9236,
    "countryCode" : "AU",
    "teamCode" : "AUS"
    },
    {"loadType": "citySite",
    "name" : "Brisbane",
    "dateline" : "BRISBANE, Australia",
    "code" : "AU BNE",
    "latDMS": "27 28 25.22 S",
    "longDMS": "152 56 36.31 E",
    "latDecimal": -27.4736,
    "longDecimal": 152.9434,
    "countryCode" : "AU",
    "teamCode" : "AUS"
    },
    {"loadType": "citySite",
    "name" : "Melbourne",
    "dateline" : "MELBOURNE, Australia",
    "code" : "AU MEL",
    "latDMS": "37 27 4.72 S",
    "longDMS": "144 49 38.17 E",
    "latDecimal": -37.4513,
    "longDecimal": 144.8272,
    "countryCode" : "AU",
    "teamCode" : "AUS"
    },
    {"loadType": "citySite",
    "name" : "Kabul",
    "dateline" : "KABUL, Afghanistan",
    "code" : "AF KBL",
    "latDMS": "34 33 40.51 N",
    "longDMS": "69 13 12.17 E",
    "latDecimal": 34.5612,
    "longDecimal": 69.2200,
    "countryCode" : "AF",
    "teamCode" : "NPC"
    },
    {"loadType": "citySite",
    "name" : "Tirana",
    "dateline" : "TIRANA, Albania",
    "code" : "AL TIA",
    "latDMS": "41 21 25.45 N",
    "longDMS": "19 53 29.16 E",
    "latDecimal": 41.3570,
    "longDecimal": 19.8914,
    "countryCode" : "AL",
    "teamCode" : "NPC"
    },
    {"loadType": "citySite",
    "name" : "Algiers",
    "dateline" : "ALGIERS, Algeria",
    "code" : "DZ ALG",
    "latDMS": "36 33 11.20 N",
    "longDMS": "3 11 39.39 E",
    "latDecimal": 36.5531,
    "longDecimal": 3.1942,
    "countryCode" : "DZ",
    "teamCode" : "NPC"
    },
    {"loadType": "citySite",
    "name" : "Luanda",
    "dateline" : "LUANDA, Angola",
    "code" : "AO LAD",
    "latDMS": "8 50 1.36 N",
    "longDMS": "13 20 59.14 E",
    "latDecimal": -8.8337,
    "longDecimal": 13.3497,
    "countryCode" : "AO",
    "teamCode" : "NPC"
    },
    {"loadType": "citySite",
    "name" : "Cordoba",
    "dateline" : "CORDOBA, Argentina",
    "code" : "AR COR",
    "latDMS": "37 54 58.11 S",
    "longDMS": "4 46 35.93 W",
    "latDecimal": 37.9161,
    "longDecimal": -4.7766,
    "countryCode" : "AR",
    "teamCode" : "NPC"
    },
    {"loadType": "citySite",
    "name" : "Buenos Aires",
    "dateline" : "BUENOS AIRES, Argentina",
    "code" : "AR BUE",
    "latDMS": "34 35 15.16 S",
    "longDMS": "58 46 16.90 W",
    "latDecimal": -34.5875,
    "longDecimal": -58.7713,
    "countryCode" : "AR",
    "teamCode" : "NPC"
    },
    {"loadType": "citySite",
    "name" : "Yerevan",
    "dateline" : "YEREVAN, Armenia",
    "code" : "AM EVN",
    "latDMS": "40 9 30.65 N",
    "longDMS": "44 33 50.32 E",
    "latDecimal": 40.1585,
    "longDecimal": 44.5639,
    "countryCode" : "AM",
    "teamCode" : "NPC"
    },
    {"loadType": "citySite",
    "name" : "Vienna",
    "dateline" : "VIENNA",
    "code" : "AT VIE",
    "latDMS": "48 4 35.79 N",
    "longDMS": "16 25 3.69 E",
    "latDecimal": 48.0766,
    "longDecimal": 16.4177,
    "countryCode" : "AT",
    "teamCode" : "NPC"
    },
    {"loadType": "citySite",
    "name" : "Baku",
    "dateline" : "BAKU, Azerbaijan",
    "code" : "AZ DAC",
    "latDMS": "40 22 27.01 N",
    "longDMS": "49 45 50.20 E",
    "latDecimal": 40.3741,
    "longDecimal": 49.7639,
    "countryCode" : "AZ",
    "teamCode" : "NPC"
    },
    {"loadType": "citySite",
    "name" : "Dhaka",
    "dateline" : "DHAKA, Bangladesh",
    "code" : "BD DAC",
    "latDMS": "23 48 30.24 N",
    "longDMS": "90 26 56.63 E",
    "latDecimal": 23.8084,
    "longDecimal": 90.4490,
    "countryCode" : "BD",
    "teamCode" : "NPC"
    },
    {"loadType": "citySite",
    "name" : "Minsk",
    "dateline" : "MINSK, Belarus",
    "code" : "BY MSQ",
    "latDMS": "53 50 58.59 N",
    "longDMS": "27 32 53.58 E",
    "latDecimal": 53.8496,
    "longDecimal": 27.5482,
    "countryCode" : "BY",
    "teamCode" : "NPC"
    },
    {"loadType": "citySite",
    "name" : "Brussels",
    "dateline" : "BRUSSELS",
    "code" : "BE BRU",
    "latDMS": "50 51 30.58 N",
    "longDMS": "4 24 8.74 E",
    "latDecimal": 50.8584,
    "longDecimal": 4.4024,
    "countryCode" : "BE",
    "teamCode" : "NPC"
    },
    {"loadType": "citySite",
    "name" : "Belize",
    "dateline" : "BELIZE, Belize",
    "code" : "BZ BZE",
    "latDMS": "17 35 27.17 N",
    "longDMS": "88 22 51.20 W",
    "latDecimal": 17.5908,
    "longDecimal": -88.3808,
    "countryCode" : "BZ",
    "teamCode" : "NPC"
    },
    {"loadType": "citySite",
    "name" : "Cotonou",
    "dateline" : "COTONOU, Benin",
    "code" : "BJ COO",
    "latDMS": "6 22 25.62 N",
    "longDMS": "2 25 11.06 E",
    "latDecimal": 6.3737,
    "longDecimal": 2.4197,
    "countryCode" : "BJ",
    "teamCode" : "NPC"
    },
    {"loadType": "citySite",
    "name" : "Milan",
    "dateline" : "MILAN, Bolivia",
    "code" : "BO CBB",
    "latDMS": "45 41 52.55 N",
    "longDMS": "9 20 23.10 E",
    "latDecimal": 45.6979,
    "longDecimal": 9.3397,
    "countryCode" : "BO",
    "teamCode" : "NPC"
    },
    {"loadType": "citySite",
    "name" : "Sarajevo",
    "dateline" : "SARAJEVO, Bosnia and Herzegovina",
    "code" : "BA SJJ",
    "latDMS": "43 50 29.61 N",
    "longDMS": "18 25 11.82 E",
    "latDecimal": 43.8415,
    "longDecimal": 18.4199,
    "countryCode" : "BA",
    "teamCode" : "NPC"
    },
    {"loadType": "citySite",
    "name" : "Gaborone",
    "dateline" : "GABORONE, Botswana",
    "code" : "BW GBE",
    "latDMS": "24 36 5.89 S",
    "longDMS": "25 57 8.83 E",
    "latDecimal": -24.6016,
    "longDecimal": 25.9524,
    "countryCode" : "BW",
    "teamCode" : "NPC"
    },
    {"loadType": "citySite",
    "name" : "Fortaleza",
    "dateline" : "FORTALEZA, Brazil",
    "code" : "BR FOR",
    "latDMS": "3 43 28.89 S",
    "longDMS": "38 28 15.71 W",
    "latDecimal": -3.7246,
    "longDecimal": -38.4710,
    "countryCode" : "BR",
    "teamCode" : "BRZ"
    },
    {"loadType": "citySite",
    "name" : "Recife",
    "dateline" : "RECIFE, Brazil",
    "code" : "BR REC",
    "latDMS": "8 1 57.28 S",
    "longDMS": "34 55 56.65 W",
    "latDecimal": -8.0325,
    "longDecimal": -34.9324,
    "countryCode" : "BR",
    "teamCode" : "BRZ"
    },
    {"loadType": "citySite",
    "name" : "Salvador",
    "dateline" : "SALVADOR, Brazil",
    "code" : "BR SSA",
    "latDMS": "812 57 5.09 S",
    "longDMS": "38 29 28.32 W",
    "latDecimal": -12.9514,
    "longDecimal": -38.4912,
    "countryCode" : "BR",
    "teamCode" : "BRZ"
    },
    {"loadType": "citySite",
    "name" : "Brasilia",
    "dateline" : "BRASILIA, Brazil",
    "code" : "BR BSB",
    "latDMS": "15 55 35.52 S",
    "longDMS": "47 57 8.03 W",
    "latDecimal": -15.9265,
    "longDecimal": -47.9522,
    "countryCode" : "BR",
    "teamCode" : "BRZ"
    },
    {"loadType": "citySite",
    "name" : "Sao Paulo",
    "dateline" : "SAO PAULO",
    "code" : "BR GRU",
    "latDMS": "23 33 51.03 S",
    "longDMS": "46 38 10.59 W",
    "latDecimal": -23.5641,
    "longDecimal": -46.6362,
    "countryCode" : "BR",
    "teamCode" : "BRZ"
    },
    {"loadType": "citySite",
    "name" : "Bucharest",
    "dateline" : "BUCHAREST, Bulgaria",
    "code" : "BG BUH",
    "latDMS": "41 34 33.61 N",
    "longDMS": "12 41 0.13 E",
    "latDecimal": 41.5760,
    "longDecimal": 12.6833,
    "countryCode" : "BG",
    "teamCode" : "NPC"
    },
    {"loadType": "citySite",
    "name" : "Ouagadougou",
    "dateline" : "OUAGADOUGOU, Burkina Faso",
    "code" : "BF OUA",
    "latDMS": "12 24 23.52 N",
    "longDMS": "1 30 1.15 W",
    "latDecimal": 12.4065,
    "longDecimal": -1.5003,
    "countryCode" : "BF",
    "teamCode" : "NPC"
    },
    {"loadType": "citySite",
    "name" : "Bujumbura",
    "dateline" : "BUJUMBURA, Burundi",
    "code" : "BI BLM",
    "latDMS": "3 22 30.63 S",
    "longDMS": "29 22 53.61 E",
    "latDecimal": -3.3751,
    "longDecimal": 29.3815,
    "countryCode" : "BI",
    "teamCode" : "NPC"
    },
    {"loadType": "citySite",
    "name" : "Phnom Penh",
    "dateline" : "PHNOM PENH, Cambodia",
    "code" : "KH PNH",
    "latDMS": "11 33 49.64 N",
    "longDMS": "104 53 49.62 E",
    "latDecimal": 11.5637,
    "longDecimal": 104.8971,
    "countryCode" : "KH",
    "teamCode" : "NPC"
    },
    {"loadType": "citySite",
    "name" : "Vancouver",
    "dateline" : "VANCOUVER, Canada",
    "code" : "CA YVR",
    "latDMS": "49 15 48.74 N",
    "longDMS": "-123 8 18.85 W",
    "latDecimal": 49.2635,
    "longDecimal": -123.1385,
    "countryCode" : "CA",
    "teamCode" : "NPC"
    },
    {"loadType": "citySite",
    "name" : "Montreal",
    "dateline" : "MONTREAL",
    "code" : "CA YMQ",
    "latDMS": "45 30 32.62 N",
    "longDMS": "-73 33 12.10 W",
    "latDecimal": 45.5090,
    "longDecimal": -73.5533,
    "countryCode" : "CA",
    "teamCode" : "NPC"
    },
    {"loadType": "citySite",
    "name" : "Toronto",
    "dateline" : "TORONTO",
    "code" : "CA YTO",
    "latDMS": "43 39 6.81 N",
    "longDMS": "-79 22 54.16 W",
    "latDecimal": 43.6518,
    "longDecimal": -79.3817,
    "countryCode" : "CA",
    "teamCode" : "NPC"
    },
    {"loadType": "citySite",
    "name" : "Bangui",
    "dateline" : "BANGUI, Central African Republic",
    "code" : "CF BGF",
    "latDMS": "43 39 6.81 N",
    "longDMS": "-79 22 54.16 E",
    "latDecimal": 43.6518,
    "longDecimal": -79.3817,
    "countryCode" : "CF",
    "teamCode" : "NPC"
    },
    {"loadType": "citySite",
    "name" : "N'Djamena",
    "dateline" : "N'DJAMENA, Chad",
    "code" : "TD NDJ",
    "latDMS": "12 6 23.30 N",
    "longDMS": "15 2 27.96 E",
    "latDecimal": 12.1064,
    "longDecimal": 15.0411,
    "countryCode" : "TD",
    "teamCode" : "NPC"
    },
    {"loadType": "citySite",
    "name" : "Santiago",
    "dateline" : "SANTIAGO, Chile",
    "code" : "CL SCL",
    "latDMS": "33 26 45.58 S",
    "longDMS": "70 40 1.40 W",
    "latDecimal": -33.4459,
    "longDecimal": -70.6670,
    "countryCode" : "SA",
    "teamCode" : "NPC"
    },
    {"loadType": "citySite",
    "name" : "Medellian",
    "dateline" : "MEDELLIAN, Colombia",
    "code" : "CO MLN",
    "latDMS": "6 14 35.71 N",
    "longDMS": "-75 34 23.63 W",
    "latDecimal": 6.2432,
    "longDecimal": -75.5732,
    "countryCode" : "CO",
    "teamCode" : "NPC"
    },
    {"loadType": "citySite",
    "name" : "Bogota",
    "dateline" : "BOGOTA, Colombia",
    "code" : "CO BOG",
    "latDMS": "4 39 30.79 N",
    "longDMS": "-74 3 12.04 W",
    "latDecimal": 4.6585,
    "longDecimal": -74.0533,
    "countryCode" : "CO",
    "teamCode" : "NPC"
    },
    {"loadType": "citySite",
    "name" : "San Juan",
    "dateline" : "SAN JUAN, Costa Rica",
    "code" : "CR UPL",
    "latDMS": "9 57 40.07 N",
    "longDMS": "-84 4 55.84 W",
    "latDecimal": 9.9611,
    "longDecimal": -84.0821,
    "countryCode" : "CR",
    "teamCode" : "NPC"
    },
    {"loadType": "citySite",
    "name" : "Abidjan",
    "dateline" : "ABADJAN, Cote d’Ivoire",
    "code" : "CI ABJ",
    "latDMS": "5 19 15.22 N",
    "longDMS": "-4 1 10.83 W",
    "latDecimal": 5.3208,
    "longDecimal": -4.0196,
    "countryCode" : "CI",
    "teamCode" : "NPC"
    }    
]

