[
{"loadType": "citySite",
"name" : "San Francisco",
"dateline" : "SAN FRANCISCO, United States",
"code" : "US SFO",
"latDMS": "37 46 26.3 N",
"longDMS": "122 25 52.7 W",
"latDecimal": 37.615223,
"longDecimal": -122.389977,
"parentCode1" : "US",
"parentCode2" : "USA"
},
{"loadType": "citySite",
"name" : "Moscow",
"dateline": "MOSCOW",
"code" : "RU BKA",
"latDMS": "55 37 01.0 N",
"longDMS": "038 03 36.0 E",
"latDecimal": 55.6172,
"longDecimal": 38.06,
"parentCode1" : "RU",
"parentCode2" : "RFD"
},
{"loadType": "citySite",
"name" : "Beijing",
"dateline" : "BEIJING",
"code" : "CN BJS",
"latDMS": "39 55 00.0 N",
"longDMS": "116 22 60.0 E",
"latDecimal": 39.91667,
"longDecimal": 116.38331,
"parentCode1" : "CN",
"parentCode2" : "PRC"
},
{"loadType": "citySite",
"name" : "Paris",
"dateline" : "PARIS",
"code" : "FR ATY",
"latDMS": "48 51 53.0 N",
"longDMS": "002 20 56.5 E",
"latDecimal": 48.8566,
"longDecimal": 2.3522,
"parentCode1" : "FR",
"parentCode2" : "TFR"
},
{"loadType": "citySite",
"name" : "London",
"dateline" : "LONDON",
"code" : "GB LHR",
"latDMS": "51 28 12.1 N",
"longDMS": "000 27 15.5 E",
"latDecimal": 51.47,
"longDecimal": 0.4543,
"parentCode1" : "GB",
"parentCode2" : "TUK"
},
{"loadType": "citySite",
 "name" : "Amundsen-Scott South Pole",
 "dateline" : "SOUTH POLE",
 "code" : "AQ AMS",
 "latDMS": "90 00 00.0 S",
 "longDMS": "139 15 60.0 W",
 "latDecimal": -90.0,
 "longDecimal": -139.2667,
 "parentCode1" : "AQ",
 "parentCode2" : "USA"
},
{"loadType": "citySite",
"name" : "Cape Town",
"dateline" : "",
"code" : "ZA CPT",
"latDMS": "33 55 07.89 N",
"longDMS": "018 25 23.88 E",
"latDecimal": 33.9249,
"longDecimal": 18.4241,
"parentCode1" : "ZA",
"parentCode2" : "RSA"
},
{"loadType": "citySite",
"name" : "Tokyo",
"dateline" : "",
"code" : "JP NRT",
"latDMS": "35 46 59.99 N",
"longDMS": "140 19 0.01 E",
"latDecimal": 35.7833,
"longDecimal": 140.3167,
"parentCode1" : "JP",
"parentCode2" : "JPN"
},
{"loadType": "citySite",
"name" : "Tehran",
"dateline" : "",
"code" : "IR IKA",
"latDMS": "35 24 58.00 N",
"longDMS": "051 09 08.0 E",
"latDecimal": 35.4095,
"longDecimal": 51.1552,
"parentCode1" : "IR",
"parentCode2" : "IRN"
},
{"loadType": "citySite",
"name" : "Mumbai",
"dateline" : "",
"code" : "IN BOM",
"latDMS": "19 04 33.92 N",
"longDMS": "072 52 38.73 E",
"latDecimal": 19.0760,
"longDecimal": 72.8777,
"parentCode1" : "IN",
"parentCode2" : "IND"
},
{"loadType": "citySite",
"name" : "Cairo",
"dateline" : "",
"code" : "EG CAI",
"latDMS": "30 07 19.00 N",
"longDMS": "031 24 20.00 E",
"latDecimal": 30.0444,
"longDecimal": 31.2357,
"parentCode1" : "EG",
"parentCode2" : "EPT"
},
{"loadType": "citySite",
"name" : "Rio de Janeiro",
"dateline" : "",
"code" : "BR GIG",
"latDMS": "22 48 36.00 S",
"longDMS": "043 15 02.00 W",
"latDecimal": -22.8053,
"longDecimal": -43.2566,
"parentCode1" : "BR",
"parentCode2" : "BRZ"
},
{"loadType": "citySite",
"name" : "Sydney",
"dateline" : "",
"code" : "AU SYD",
"latDMS": "33 56 50.45 S",
"longDMS": "151 10 45.94 E",
"latDecimal": -33.9473,
"longDecimal": 151.1794,
"parentCode1" : "AU",
"parentCode2" : "AUS"
}
]
