[
{"loadType": "citySite",
"name" : "San Francisco",
"code" : "US SFO",
"latDMS": "37 46 26.3 N",
"longDMS": "122 25 52.7 W",
"latDecimal": 37.615223,
"longDecimal": -122.389977,
"parentCode1" : "US",
"parentCode2" : "USA"
},
{"loadType": "citySite",
"name" : "Moscow",
"code" : "RU BKA",
"latDMS": "55 37 01.0 N",
"longDMS": "038 03 36.0 E",
"latDecimal": 55.6172,
"longDecimal": 38.06,
"parentCode1" : "RU",
"parentCode2" : "RFD"
},
{"loadType": "citySite",
"name" : "Beijing",
"code" : "CN BJS",
"latDMS": "39 55 00.0 N",
"longDMS": "116 22 60.0 E",
"latDecimal": 39.91667,
"longDecimal": 116.38331,
"parentCode1" : "CN",
"parentCode2" : "PRC"
},
{"loadType": "citySite",
"name" : "Paris",
"code" : "FR ATY",
"latDMS": "48 51 53.0 N",
"longDMS": "002 20 56.5 E",
"latDecimal": 48.8566,
"longDecimal": 2.3522,
"parentCode1" : "FR",
"parentCode2" : "TFR"
},
{"loadType": "citySite",
"name" : "London",
"code" : "GB LHR",
"latDMS": "51 28 12.1 N",
"longDMS": "000 27 15.5 E",
"latDecimal": 51.47,
"longDecimal": 0.4543,
"parentCode1" : "GB",
"parentCode2" : "TUK"
},
{"loadType": "citySite",
 "name" : "Amundsen-Scott South Pole",
 "code" : "AQ AMS",
 "latDMS": "90 00 00.0 S",
 "longDMS": "139 15 60.0 W",
 "latDecimal": -90.0,
 "longDecimal": -139.2667,
 "parentCode1" : "AQ",
 "parentCode2" : "USA"
}
]
